store_id	country	state_province	city	address	postcode	latitude	longitude
	Canada	Alberta	Acheson	9817-266 Street Unit #120	T7X 6H6	53.5377742	-113.7657227
	Canada	Alberta	Airdrie	108 Edmonton Trail NE Bay E	T4B 1R9	51.2916563	-114.0008258
	Canada	Alberta	Airdrie	114 Sierra Springs Drive SE Suite 102	T4B 2B5	51.2692792	-114.0029423
	Canada	Alberta	Airdrie	117 East Lake Crescent NE Suite 201	T2A 2H6	51.290181	-113.9985077
	Canada	Alberta	Airdrie	2100 Market St.SE Unit #109	T4A 0K9	51.2693607	-113.9943231
	Canada	Alberta	Airdrie	35 Mackenzie Way Suite # 5101	T4B 0V7	51.2924397	-114.0239595
	Canada	Alberta	Airdrie	800 Yankee Valley Blvd SW Unit 205	 T4B3E3	51.2712383	-114.0270861
	Canada	Alberta	Ardrossan	Range Road 222 & 3rd Avenue	T6E 2M8	53.5554077	-113.1480574
	Canada	Alberta	Athabasca	4812 50th St Unit 103	T9S 1C9	54.718678	-113.285431
	Canada	Alberta	Banff	137  Avenue Bay 9	T1L 1A7	51.1765079	-115.571392
	Canada	Alberta	Barrhead	5307 49 St	T7N 1A5	54.123401	-114.401547
	Canada	Alberta	Bassano	601 12 Street	T0J 0B0	50.7912339	-112.4503818
	Canada	Alberta	Beaumont	6110-50th St Suite #102	 T4X1T8	53.3621197	-113.4172097
	Canada	Alberta	Beaverlodge	1022 - 1st Ave	T0H 0C0	55.210677	-119.4308575
	Canada	Alberta	Bentley	4930 50th Ave	 T0C0J0	52.46522829	-114.040723
	Canada	Alberta	Black Diamond	201 Government Rd	T0L 0H0	50.6870466	-114.2329925
	Canada	Alberta	Blackfalds	5053 Parkwood Rd	T0M 0J0	52.3821335	-113.7873598
	Canada	Alberta	Bonnyville	4803 50 Avenue	T9N 2G7	54.268257	-110.73509
	Canada	Alberta	Bow Island	7th Ave East & 2nd Street East	T0K 0G0	49.8677148	-111.3748158
	Canada	Alberta	Bragg Creek	"1 White Ave, Bay 2"	T0L 0K0	50.9508426	-114.5604515
	Canada	Alberta	Brooks	1025-2 Street West	 T1R0N9	50.5789709	-111.898726
	Canada	Alberta	Calgary	#103 1330 15th Ave SW	T3C 3N6	51.0397031	-114.0940671
	Canada	Alberta	Calgary	"#344, 19489 Seton Crescent SE"	T3M 1T4	50.8809824	-113.9573127
	Canada	Alberta	Calgary	#8 Midlake Blvd SE	T2X 2X7	50.9147846	-114.0649445
	Canada	Alberta	Calgary	#8009 873-85th Street S.W	T3H 0J5	51.0605319	-114.2114346
	Canada	Alberta	Calgary	100 Anderson Rd SE Space #Fc3	T2J 3V1	50.9527458	-114.0657867
	Canada	Alberta	Calgary	1000 Hamptons Drive NW Bay #480	T3A 6A7	51.1417761	-114.130386
	Canada	Alberta	Calgary	"101, 831 Edmonton Trl NE"	T2E 3J8	51.059503	-114.0547185
	Canada	Alberta	Calgary	"105, 5401 Temple Drive NE"	T1Y 3R7	51.0852474	-113.9554752
	Canada	Alberta	Calgary	10822 - 50th Street SE	T2C 2X8	50.9564215	-113.9609953
	Canada	Alberta	Calgary	110-2929 Sunride Way NE Unit E4	T1Y 7K7	51.0686796	-113.9945174
	Canada	Alberta	Calgary	1110 Panatella Blvd N.W. #210	T3K 6K6	51.1682004	-114.0896427
	Canada	Alberta	Calgary	11300 Tuscany Blvd NW Unit 1070	T3L 2V7	51.1241007	-114.2488881
	Canada	Alberta	Calgary	11440 Braeside Dr SW Suite 7	T2W 3N4	50.9539734	-114.1162563
	Canada	Alberta	Calgary	11566 24th St SE 230	T2Z 3J3	50.950937	-114.0016993
	Canada	Alberta	Calgary	11595 Rocky Valley Dr NW Unit 2014	T3G 5Y6	51.1478364	-114.2550945
	Canada	Alberta	Calgary	11625 Elbow Dr SW Unit 103	T2W 0S2	50.9487614	-114.0860175
	Canada	Alberta	Calgary	"11658 Sarcee Trail NW Bldg. E305, Unit No. 120"	T3R 0A1	51.1562674	-114.1581103
	Canada	Alberta	Calgary	11988 Symons Valley Rd NW Unit 114	T3P 0A3	51.1607741	-114.1223255
	Canada	Alberta	Calgary	1200 37 St SW Unit 22D	T3C 1S2	51.0415061	-114.1409019
	Canada	Alberta	Calgary	1216 16th Ave NW	T2M 0K9	51.0672984	-114.0885672
	Canada	Alberta	Calgary	1301 16th Avenue NW	T2M 0L4	51.066436	-114.0907188
	Canada	Alberta	Calgary	1313 - 1 Street SW	T2R 0W3	51.040278	-114.0660981
	Canada	Alberta	Calgary	"135, 20 Copperpond Passage SE"	 T2Z1Z4	50.9190303	-113.9196389
	Canada	Alberta	Calgary	136-30 Springborough Blvd SW	 T3H0N9	51.0347039	-114.1916002
	Canada	Alberta	Calgary	141 Crowfoot Way NW 6	T3G 4B7	51.1254972	-114.2078848
	Canada	Alberta	Calgary	"142, 4242 7th St SE"	T2G 2Y8	51.0164599	-114.0452219
	Canada	Alberta	Calgary	1421 Kensington Rd NW	T2N 3R1	51.0523399	-114.0935522
	Canada	Alberta	Calgary	1440 52nd St NE Unit 178/C01178a	T2A 4T8	51.0635666	-113.9565735
	Canada	Alberta	Calgary	1470 # 7 Mahogany Plaza SE	T3M 2P8	50.8983061	-113.942237
	Canada	Alberta	Calgary	14919 Deer Ridge Dr SE Suite # B103	T2J 7C4	50.9304559	-114.0268766
	Canada	Alberta	Calgary	15 Sunpark Plaza SE Unit #6103	T2X 0M5	50.9045108	-114.0576272
	Canada	Alberta	Calgary	150 6th Ave SW Unit 225	T2P 3Y7	51.0479074	-114.064696
	Canada	Alberta	Calgary	151 Walden Gate S.E Unit #410	T2X 0R2	50.8757096	-114.0380471
	Canada	Alberta	Calgary	1600 90th Avenue SW Unit # A102	T2V 5A8	50.974075	-114.098915
	Canada	Alberta	Calgary	16th Ave NW & 14th Ave NW Unit 1807	T2N 1M7	51.0669934	-114.0946504
	Canada	Alberta	Calgary	"18, 7750 Ranchview Drive NW"	 T3G1Y9	51.1207086	-114.1804786
	Canada	Alberta	Calgary	1851 Sirocco Dr SW #412	T3H 4R5	51.0374786	-114.1678076
	Canada	Alberta	Calgary	1923 Centre Street NW	 T2E2S7	51.0690944	-114.0627922
	Canada	Alberta	Calgary	19369 Sheriff King Street SW Unit #602	T2X 0T9	50.8789509	-114.0723129
	Canada	Alberta	Calgary	20 Longview Common SE #320	T2X 4S8	50.8647625	-114.0294303
	Canada	Alberta	Calgary	"200, 11135 14th Street NE Unit A-102"	T3K 0Z7	51.1527135	-114.0299258
	Canada	Alberta	Calgary	2000 Airport Rd NE Rm M49e05	T2E 6W5	51.1310726	-114.0112791
	Canada	Alberta	Calgary	2000 Airport Rd NE Rm D80k03 - Concourse A	T2E 6W5	51.1310726	-114.0112791
	Canada	Alberta	Calgary	2000 Airport Road NE Air Terminal Bldg Fc-04	T2E 6W5	51.1310726	-114.0112791
	Canada	Alberta	Calgary	2060 Symons Valley Parkway NW Unit #3006	T3P 0C3	51.1743427	-114.1084753
	Canada	Alberta	Calgary	2066 18th Ave NE #106	T2E 8N5	51.0693345	-114.0125695
	Canada	Alberta	Calgary	2105 33rd Ave SW	T2T 1Z7	51.0238232	-114.1099873
	Canada	Alberta	Calgary	216 Saddletowne Circle NE Unit #129	T3J 4K6	51.1244268	-113.948476
	Canada	Alberta	Calgary	2220 68th St NE Unit 901	T1Y 6Y7	51.069517	-113.932938
	Canada	Alberta	Calgary	2317 4th Street SW	T2S 3B4	51.0318336	-114.0717672
	Canada	Alberta	Calgary	2323 32nd Ave NE Suite 105	T2E 6Z3	51.0801459	-114.0060876
	Canada	Alberta	Calgary	2335 162nd Ave SW #503	T2Y 4S6	50.9052831	-114.1119502
	Canada	Alberta	Calgary	2500 University Dr NW Macewan Student Ctr Unit #115A	T2H 1H4	51.0803322	-114.1323245
	Canada	Alberta	Calgary	2515 90 Ave SW	T2V 0L8	50.9718508	-114.1190443
	Canada	Alberta	Calgary	2525 36th Street Unit # F114	T1Y 5T4	51.0741668	-113.9860395
	Canada	Alberta	Calgary	255 - 28th St SE Unit 308	T2A 5K4	51.0499456	-113.9930725
	Canada	Alberta	Calgary	275 Shawville Blvd SE Bay 3	T2Y 3H9	50.9015874	-114.0678965
	Canada	Alberta	Calgary	28 High St SE	T2Z 3T8	50.915582	-113.96011
	Canada	Alberta	Calgary	306 Aspen Glen Landing SW Unit #120	T3H 0N5	51.0389595	-114.2075705
	Canada	Alberta	Calgary	3110 36 Street SE	T2B 3B6	51.0266209	-113.9811374
	Canada	Alberta	Calgary	315 8th Avenue Unit #367	T2P 4K1	51.0455126	-114.0689369
	Canada	Alberta	Calgary	3174 Sunridge Blvd NE	T1Y 7G6	51.0762334	-113.9900216
	Canada	Alberta	Calgary	3440 - 69 Street NW Unit #160	T3B 2J8	51.0835641	-114.1874012
	Canada	Alberta	Calgary	"350 Shawville Blvd SE #260, Site 1"	T2Y 3S4	50.8991309	-114.0602674
	Canada	Alberta	Calgary	3500 24th Ave NW Yamnuska Hall	T2N 4V5	51.0748013	-114.1371335
	Canada	Alberta	Calgary	356 Cranston Road SE	T3M 0J4	50.8808759	-113.9768421
	Canada	Alberta	Calgary	3611 17th Ave SE	T2A 0R8	51.0374804	-113.9822742
	Canada	Alberta	Calgary	3619 61st Ave SE Suite 210	T2C 4T8	50.998416	-113.981176
	Canada	Alberta	Calgary	3625 Shaganappi Tr NW	T3A 0E2	51.0847015	-114.1541465
	Canada	Alberta	Calgary	3701 17th Ave SW	T3E 0C1	51.0375151	-114.1402971
	Canada	Alberta	Calgary	3800 Memorial Dr NE Store # 60	T2A 2K2	51.0551351	-113.978518
	Canada	Alberta	Calgary	388 Country Hills Blvd NE Unit # 505	T3K 5J6	51.1555614	-114.0645403
	Canada	Alberta	Calgary	3919 Richmond Rd SW Unit 9	T3C 2E6	51.0215203	-114.1428648
	Canada	Alberta	Calgary	396 11th Ave SW Unit# 120	T2R 0C5	51.0426781	-114.0710195
	Canada	Alberta	Calgary	4002 Edmonton Trail NE	T2E 3P6	51.0880332	-114.0512216
	Canada	Alberta	Calgary	404 6th Ave. SW Suite 100	T2P 0R9	51.0479199	-114.0705134
	Canada	Alberta	Calgary	"409 East Hills Blvd. SE, 623"	T2A 3W1	51.0399273	-113.9085977
	Canada	Alberta	Calgary	4101 8338-18th St SE Bay 240	T2C 2X5	50.9778158	-114.013204
	Canada	Alberta	Calgary	425 1st St SW Unit 204	T2P 3L8	51.0489274	-114.0654639
	Canada	Alberta	Calgary	429 58th Ave SE	T2H 0P5	51.0012491	-114.0547579
	Canada	Alberta	Calgary	4307 130th Ave SE Unit 13	T2Z 3V8	50.9306017	-113.971426
	Canada	Alberta	Calgary	4575 25th St SE Bay #2	T2B 3R9	51.0136594	-114.0006297
	Canada	Alberta	Calgary	4624 Varsity Dr NW #8	T3A 2L9	51.0933971	-114.1543143
	Canada	Alberta	Calgary	4712 16th Ave NW	T3B 0N1	51.0722576	-114.1633418
	Canada	Alberta	Calgary	4825 Mount Royal Gate SW Wyckham House	T3E 6K6	51.0103015	-114.1333918
	Canada	Alberta	Calgary	5062 68 St. NE	T3J 4J1	51.0987118	-113.9343929
	Canada	Alberta	Calgary	5125 126th Avenue SE	T2Z 0B2	50.9337159	-113.9604057
	Canada	Alberta	Calgary	520 3rd Ave SW Suite 260	T2P 0R3	51.0506917	-114.072703
	Canada	Alberta	Calgary	520-3 St SE	T2G 0E7	51.0480828	-114.0552277
	Canada	Alberta	Calgary	5246 - 50 Ave SE	 T2B3T1	51.0091734	-113.9595326
	Canada	Alberta	Calgary	5303-68 Ave SE Unit #105	 T2C4Z2	50.9930205	-113.9576085
	Canada	Alberta	Calgary	5404 Falsbridge Dr NE	T3J 3C7	51.0983173	-113.9563847
	Canada	Alberta	Calgary	55 Skyview Ranch Way NE #3107	T2A 6K4	51.1645711	-113.9628952
	Canada	Alberta	Calgary	5504 Macleod Trail SW Unit No. 120	T2H 0J5	51.0052815	-114.0693088
	Canada	Alberta	Calgary	560 64th Ave NE	T2K 6H9	51.111229	-114.054625
	Canada	Alberta	Calgary	5606 B Fourth St NW	T2K 1B2	51.1135929	-114.0561828
	Canada	Alberta	Calgary	6 - 252 Aviation Blvd NE	T2E 7G1	51.0973526	-114.0324729
	Canada	Alberta	Calgary	605 5th Ave SW 270G	T2P 3H5	51.0483495	-114.0742127
	Canada	Alberta	Calgary	6130 1A St SW Unit # 4	T2H 0G3	50.9983834	-114.0668938
	Canada	Alberta	Calgary	6450 Old Banff Coach Road SW 6446	T3H 2H4	51.0603521	-114.1801657
	Canada	Alberta	Calgary	6455 Macleod Trail SW #F0018	T2H 0K8	50.9982044	-114.0734693
	Canada	Alberta	Calgary	66 Sandarac Dr NW Unit 204	T3K 3V2	51.1334218	-114.0988753
	Canada	Alberta	Calgary	7000 48th St. SE	T2C 4E1	50.9923683	-113.9613746
	Canada	Alberta	Calgary	7007 14st SW	T2V 1P9	50.990872	-114.0962558
	Canada	Alberta	Calgary	711 5005 Dalhousie Dr NW	T3A 5R8	51.1066529	-114.1595577
	Canada	Alberta	Calgary	725 17th Ave SW	T2S 0B6	51.0376688	-114.0787666
	Canada	Alberta	Calgary	728 Northmount Dr NW #4	T2K 3K2	51.0828493	-114.0927753
	Canada	Alberta	Calgary	751 3rd St SW Unit F12	T2P 4K8	51.0462916	-114.0705954
	Canada	Alberta	Calgary	755 Lake Bonavista Drive SE Unit 139	T2J 0N3	50.9419842	-114.0465248
	Canada	Alberta	Calgary	817 19th St NE Suite #1A	T2E 4X4	51.058285	-114.0145101
	Canada	Alberta	Calgary	"8180 11th St SE Unitj14, #824"	T2H 3B5	50.9783249	-114.0436805
	Canada	Alberta	Calgary	8220 Centre St NE Suite #118	T3K 1J7	51.1273746	-114.0697528
	Canada	Alberta	Calgary	826-68 St NE	T2A 6X7	51.0590961	-113.9343648
	Canada	Alberta	Calgary	8311 Fairmont Dr SE	T2H 1M8	50.979133	-114.060602
	Canada	Alberta	Calgary	"847, 17 Avenue SW"	T2S 0B7	51.0376506	-114.0816517
	Canada	Alberta	Calgary	85 Bowridge Dr NW	T3B 3R6	51.0845368	-114.2074118
	Canada	Alberta	Calgary	8818 Macleod Trail SE Suite # 39	T2H 0M4	50.974967	-114.0709234
	Canada	Alberta	Calgary	8888 Country Hills Blvd NW Unit # 174	T3G 5T4	51.1506751	-114.2128655
	Canada	Alberta	Calgary	902 5th Avenue SW	T2P 0N5	51.0490702	-114.0813405
	Canada	Alberta	Calgary	911 Heritage Dr SW	T2V 2W8	50.9791972	-114.0840378
	Canada	Alberta	Calgary	929 1 Ave NE	T2E 2L3	51.053143	-114.0419441
	Canada	Alberta	Calgary	951 - 64 Ave. N.E. A111	T2E 7Y8	51.1108272	-114.0428647
	Canada	Alberta	Calgary	9737 Macleod Trail S Bay 455	T2J 6E9	50.9668212	-114.071235
	Canada	Alberta	Calgary	Cityscape Square N.E	 T3N1N5	51.1471394	-113.9641852
	Canada	Alberta	Calgary	Stewart Green SW 137	T3H 3C8	51.0170856	-114.1691419
	Canada	Alberta	Calgary	Unit 128 65 Sage Hill Plaza NW Unit # 128/Bldg 10A Ll	T3R 0S4	51.1689933	-114.1464046
	Canada	Alberta	Calgary- Alta	520-3 Street South East	T2G 0E7	51.0410106	-114.030297
	Canada	Alberta	Calmar	5006 50th Avenue	T0C 0V0	53.2653914	-113.8061311
	Canada	Alberta	Camrose	6800 48th Ave #166	T4V 4T1	53.0200037	-112.8631914
	Canada	Alberta	Canmore	1702 Bow Valley Trail Unit B	T1W 1N5	51.0963012	-115.3575842
	Canada	Alberta	Canmore	302 Old  Road Suite 101	T1W 0J7	51.08854	-115.3465426
	Canada	Alberta	Cardston	20 3rd Ave W	T0K 0K0	49.1985871	-113.3024392
	Canada	Alberta	Carstairs	120A - 10 Ave S	T0M 0N0	51.5654782	-114.0991607
	Canada	Alberta	Chestermere	124 E  Dr	T1X 1M1	51.0517433	-113.8151793
	Canada	Alberta	Claresholm	4619 1st St W	T0L 0T0	50.0229337	-113.580963
	Canada	Alberta	Coaldale	1904 20th Ave	T1M 1N6	49.7278484	-112.6215082
	Canada	Alberta	Cochrane	"#7, 25 Quarry Street West"	T4C 0W5	51.1849761	-114.4726169
	Canada	Alberta	Cochrane	205 3rd Ave West Po Box No-1375	T4C 1B3	51.1918581	-114.4701746
	Canada	Alberta	Cochrane	4 River Heights Drive #1117	T4C 2T8	51.1616359	-114.4693652
	Canada	Alberta	Cochrane	57 West Aarsby Road #1	T4C 1M1	51.1933006	-114.4899562
	Canada	Alberta	Cold Lake	4912 52 St	T9M 1P4	54.4125176	-110.2097447
	Canada	Alberta	Cold Lake	6603 51 Avenue Unit 1504	 T9M1Z9	54.4326606	-110.2040883
	Canada	Alberta	Coleman	8525 20 Ave	T0K 0M0	49.6355233	-114.4903331
	Canada	Alberta	Consort	5002 - 43 Street	T0C 1B0	52.0090412	-110.7650295
	Canada	Alberta	Crestomere	"281005 Hwy. 53 Rural, Rt 3"	T4L 2N3	52.6684809	-113.9152623
	Canada	Alberta	Crossfield	901 Laut Avenue	T0M 0S0	51.42225565	-114.0394753
	Canada	Alberta	Devon	180 Miquelon Avenue Unit# 103	T9G 0A6	53.3525211	-113.7320205
	Canada	Alberta	Didsbury	1714 20 Avenue	 T0M0W0	51.65435737	-114.1606087
	Canada	Alberta	Drayton Valley	5508 A- 50 Street	T7A 1S3	53.19921932	-114.9766933
	Canada	Alberta	Drayton Valley	5817 50th Ave Stn Main	T7A 1R7	53.221368	-114.971346
	Canada	Alberta	Edmonton	#15252 127 Street	T6V 0C5	53.61625704	-113.5416034
	Canada	Alberta	Edmonton	#2 10507 104 Ave NW	T5H 2V9	53.54608969	-113.5016287
	Canada	Alberta	Edmonton	10036 Jasper Avenue	T5J 1R2	53.5410559	-113.4919764
	Canada	Alberta	Edmonton	10066 163rd St Unit 66	T5P 3N4	53.540914	-113.6034
	Canada	Alberta	Edmonton	10111 104 Ave Unit No. 230	T5J 0J4	53.5455048	-113.4940021
	Canada	Alberta	Edmonton	10155 102nd St. NW Suite 265	T5J 4G8	53.541705	-113.494645
	Canada	Alberta	Edmonton	10170- 186 St	T5S 0P3	53.531666	-113.67279
	Canada	Alberta	Edmonton	10250-101 Street	T5J 3P4	53.545852	-113.49125
	Canada	Alberta	Edmonton	"10551, Kingsway Avenue"	T5H 3W1	53.55789283	-113.5020701
	Canada	Alberta	Edmonton	10621-100th Avenue	T5J 0B3	53.538726	-113.503106
	Canada	Alberta	Edmonton	10652 82nd Ave	T6E 2A6	53.518326	-113.505674
	Canada	Alberta	Edmonton	1082 - 9499 137 Ave	T5E 5R8	53.59944576	-113.5105012
	Canada	Alberta	Edmonton	10838 Jasper Ave	T5J 2B3	53.54104115	-113.5075825
	Canada	Alberta	Edmonton	10862 170th St Street NW	T5S 2H7	53.555132	-113.616034
	Canada	Alberta	Edmonton	109 St.& Princess Elizabeth Ave Unit No. 405	T5G 3A6	53.5639415	-113.506446
	Canada	Alberta	Edmonton	10903 23rd Ave Suite101	T6J 1X3	53.453748	-113.509156
	Canada	Alberta	Edmonton	11162 Ellerslie Road SW	T6W 1A2	53.4248013	-113.5192663
	Canada	Alberta	Edmonton	1121 Windermere Way Bldg. C	T6W 2P3	53.438536	-113.618137
	Canada	Alberta	Edmonton	11323 104th Ave	T5K 2S1	53.546111	-113.516987
	Canada	Alberta	Edmonton	11439 - 40th Ave	T6J 0R4	53.4755809	-113.5273233
	Canada	Alberta	Edmonton	11740 - 149 Street NW	T5M 4E4	53.59083491	-113.5776631
	Canada	Alberta	Edmonton	11763 106th St. Cat Building	T5G 3H6	53.5695388	-113.5011774
	Canada	Alberta	Edmonton	11804 Jasper Avenue NW Unit #2	T5K 0N7	53.54105769	-113.5252725
	Canada	Alberta	Edmonton	11843 St Albert Trail	T5L 5B5	53.5724425	-113.5507934
	Canada	Alberta	Edmonton	12620D 132nd Ave	T5L 3P9	53.593035	-113.539406
	Canada	Alberta	Edmonton	12736 167 Avenue	T6V 1J5	53.628818	-113.545909
	Canada	Alberta	Edmonton	12926 97 St	T5E 4C3	53.58838042	-113.4923291
	Canada	Alberta	Edmonton	13018 50th St	T5A 4V9	53.590992	-113.417576
	Canada	Alberta	Edmonton	13131 82nd St	T5E 2T4	53.591817	-113.466565
	Canada	Alberta	Edmonton	13508 Victoria Trail Unit 4	T5A 5B9	53.597709	-113.387833
	Canada	Alberta	Edmonton	13675 St Albert Trail No. 15	T5L 5E7	53.5991267	-113.574942
	Canada	Alberta	Edmonton	13725 66 St	T5C 3E1	53.6001586	-113.4428402
	Canada	Alberta	Edmonton	13728 40th St NW	T5Y 3E5	53.598777	-113.403883
	Canada	Alberta	Edmonton	137th Avenue & 66th Street 1 Londonberry Mall NW Unit 7	T5C 3C8	53.5995428	-113.4548659
	Canada	Alberta	Edmonton	14257 23rd Ave	T6R 3A8	53.453359	-113.568182
	Canada	Alberta	Edmonton	15053 Stony Plain Rd Unit C153	T5P 4W1	53.541258	-113.580902
	Canada	Alberta	Edmonton	1509 50th St	T6H 2K3	53.4447169	-113.4190333
	Canada	Alberta	Edmonton	15321 Castledowns Rd	T5X 3Y7	53.614428	-113.516473
	Canada	Alberta	Edmonton	15339 - 37th St NW	T5Y 0S5	53.61522	-113.396271
	Canada	Alberta	Edmonton	15525 128 Avenue NW	T5V 0E1	53.584213	-113.588651
	Canada	Alberta	Edmonton	"15833 - 97 Street Bldg. H, Unit 101"	T5X 0C7	53.546218	-113.490371
	Canada	Alberta	Edmonton	17703 98A Ave Bay 202	T5T 4W8	53.546218	-113.490371
	Canada	Alberta	Edmonton	"2, 10503 Kingsway Avenue NW"	T5H 4K1	53.5574715	-113.501318
	Canada	Alberta	Edmonton	2020 - 101 Street SW	T6N 1J2	53.41495178	-113.4920402
	Canada	Alberta	Edmonton	2051 Leger Road NW	T6R 0R9	53.4584959	-113.5821115
	Canada	Alberta	Edmonton	22955 97 Ave	T5T 5X8	53.536751	-113.712168
	Canada	Alberta	Edmonton	2314 24 Street	T6T 0G9	53.454456	-113.378816
	Canada	Alberta	Edmonton	2331 - 66 Street NW Store #322	T6K 4B4	53.4438187	-113.438131
	Canada	Alberta	Edmonton	2710 141 Street SW	T6W 3Y9	53.4114069	-113.5659824
	Canada	Alberta	Edmonton	2716 James Mowatt Trail SW	T6W 3R3	53.406819	-113.536673
	Canada	Alberta	Edmonton	302-1100 Westmount Shop Centre	T5M 3L7	53.560455	-113.553362
	Canada	Alberta	Edmonton	3817 99th St	T6E 6J1	53.472347	-113.485396
	Canada	Alberta	Edmonton	3919 34th St Unit 19	T6T 1L5	53.474376	-113.391995
	Canada	Alberta	Edmonton	3930-17th Street NW Unit H1	T6T 0C2	53.31613997	-113.4224682
	Canada	Alberta	Edmonton	411 Airport Rd/Edm Int Airport	T5J 2T2	53.308296	-113.5717896
	Canada	Alberta	Edmonton	5015-111 Street NW	T6H 4M6	53.48566135	-113.5141889
	Canada	Alberta	Edmonton	5049 Ellerslie Rd SW	T6X 1X2	53.4246969	-113.4190966
	Canada	Alberta	Edmonton	5049 Mullen Road NW	T6R 0S9	53.434447	-113.574707
	Canada	Alberta	Edmonton	5237 - 167 Avenue NW	T5Y 0L2	53.626769	-113.416991
	Canada	Alberta	Edmonton	"5320 75th St NW Unit #3 , Bldg Cru 3"	T6B 3C8	53.49139	-113.443458
	Canada	Alberta	Edmonton	5704 111th St	T6H 3G1	53.494346	-113.517232
	Canada	Alberta	Edmonton	5824 Terrace Rd	T6A 0G8	53.540567	-113.424524
	Canada	Alberta	Edmonton	5904 104th Street	T6H 2K3	53.49621	-113.497865
	Canada	Alberta	Edmonton	6112 - 50th Street	 T6B2R8	53.498222	-113.419227
	Canada	Alberta	Edmonton	6238 - 99th Street B-114	T6E 6C7	53.499173	-113.487346
	Canada	Alberta	Edmonton	6576 28th Ave NW	T6L 6N3	53.459081	-113.433274
	Canada	Alberta	Edmonton	6620 178 Ave NW	T5Z 0T5	53.640977	-113.443221
	Canada	Alberta	Edmonton	6621-25 Ave SW	 T6X2Z3	53.40991918	-113.4362368
	Canada	Alberta	Edmonton	6921 172nd St	T5T 5Y1	53.505268	-113.619346
	Canada	Alberta	Edmonton	7440 Unit No. 106	T6B 2Y9	43.603062	-80.556528
	Canada	Alberta	Edmonton	752 Riverbend Square Unit 103	T6R 2E3	53.469514	-113.587884
	Canada	Alberta	Edmonton	7627 38th Ave Bay S135	T6K 3Y7	53.472111	-113.453019
	Canada	Alberta	Edmonton	7830 - 106 Avenue NW	 T6A1H5	53.5496786	-113.4488063
	Canada	Alberta	Edmonton	8022 118th Ave	T5B 0R8	53.571223	-113.464625
	Canada	Alberta	Edmonton	8116 112th Ave	T5B 0G1	53.561666	-113.466143
	Canada	Alberta	Edmonton	8127 99th St	T6E 3S9	53.517386	-113.485641
	Canada	Alberta	Edmonton	814 Webber Greens Drive	T5T 4K5	53.523873	-113.666028
	Canada	Alberta	Edmonton	824 Parsons Road	T6W 1A2	53.4250934	-113.4799211
	Canada	Alberta	Edmonton	82nd Ave NW & 83rd St NW Unit #172	T6C 4E3	53.5608428	-113.4675104
	Canada	Alberta	Edmonton	8511 112th St Newton Place	T6G 2L7	53.521583	-113.520439
	Canada	Alberta	Edmonton	8740 149 Street NW	T5R 1B6	53.520511	-113.578379
	Canada	Alberta	Edmonton	"8882 170th Street Unit Q-119, Storefront 1578"	T5T 4M2	53.523497	-113.623947
	Canada	Alberta	Edmonton	8900 114th St Student Union Building	T5H 3J6	53.525281	-113.526384
	Canada	Alberta	Edmonton	9006 75th St	T6C 2H4	53.525851	-113.443141
	Canada	Alberta	Edmonton	9013 112th St Hub Mall	T6G 2C5	53.526161	-113.520664
	Canada	Alberta	Edmonton	9030 51st Ave NW	T6E 5X4	53.488585	-113.464917
	Canada	Alberta	Edmonton	9516 170 St	T5T 5R6	53.532547	-113.6154407
	Canada	Alberta	Edmonton	Lancaster Park Bldg 299	T0A 2H0	53.6691005	-113.4933114
	Canada	Alberta	Edmonton	Singhmar Centre For Learning 10215 108 Street NW	T5J 1L6	53.54379735	-113.5056704
	Canada	Alberta	Edmonton	"Unit G113 Storefront 1858, Phase I"	T5T 4M2	53.5223619	-113.623671
	Canada	Alberta	"Edmonton, Ab"	"7143 Winterburn Rd, NW"	T7X 3Y3	53.50635	-113.687738
	Canada	Alberta	Edson	4920 4th Ave	T7E 1T8	53.5836604	-116.4307214
	Canada	Alberta	Elk Point	4802-49th Avenue	T0A 1A0	53.8962005	-110.8965638
	Canada	Alberta	Entwistle	5111-47 Avenue Unit 1	T0E 0S0	53.58952757	-114.9928505
	Canada	Alberta	Fairview	11109 - 101 Ave	T0H 1L0	56.06558435	-118.3882258
	Canada	Alberta	Falher	17 NW Main Street	T0H 1M0	55.73717	-117.202267
	Canada	Alberta	Fort Macleod	"20, 19th Street"	T0L 0Z0	49.721645	-113.414454
	Canada	Alberta	Fort McMurray	101 Signal Rd Unit 8	T9H 4N6	56.732678	-111.427239
	Canada	Alberta	Fort McMurray	114 Millennium Drive	T9K 2S8	56.75548612	-111.4633542
	Canada	Alberta	Fort McMurray	265 Eagle Ridge Blvd. Unit 1	T9K 2Z7	56.75412081	-111.4298558
	Canada	Alberta	Fort McMurray	8412 Franklin Avenue Unit #120	 T9H2J3	56.717525	-111.355089
	Canada	Alberta	Fort McMurray	9912 Franklin Avenue Bay #101	T9H 2K4	56.727331	-111.380314
	Canada	Alberta	Fort Saskatchewan	10114 88th Ave	T8L 4J9	53.700543	-113.203265
	Canada	Alberta	Fort Saskatchewan	31 Westpark Blvd. Suite #105	T8L 4N2	53.682689	-113.247883
	Canada	Alberta	Fort Saskatchewan	8701 94th St Unit 111	T8L 4P7	53.693279	-113.213317
	Canada	Alberta	Fox Creek	202 Highway Ave	T0H 1P0	54.390307	-116.7948866
	Canada	Alberta	Ft. McMurray	"Food Service, 41B C/O Mildred Lake Site"	T9H 3L1	56.752082	-111.449452
	Canada	Alberta	Gibbons	4619 50th Ave	T0A 1N0	53.82728605	-113.3242275
	Canada	Alberta	Grande Cache	#205 Pine Plaza	T0E 0Y0	53.888113	-119.116319
	Canada	Alberta	Grande Prairie	"#102, 10660 - 108 A Street"	T8V 7X4	55.1780955	-118.7770788
	Canada	Alberta	Grande Prairie	10003 - 92 St Unit 702	T8V 7T5	55.1746373	-118.7690142
	Canada	Alberta	Grande Prairie	"101, 16102 - 102 Street"	T8X 0K7	55.2268524	-118.8009949
	Canada	Alberta	Grande Prairie	10119 - 117 Ave Unit 101	T8V 7Y9	55.1856146	-118.798805
	Canada	Alberta	Grande Prairie	"103, 10312 - 67 Ave"	T8W 0L6	55.4045	-119.6242
	Canada	Alberta	Grande Prairie	10716 82 Avenue Unit 104	T8W 0G9	55.154275	-118.819263
	Canada	Alberta	Grande Prairie	"41, 11801 100th St Unit 254"	T8V 3Y2	55.187748	-118.792184
	Canada	Alberta	Grande Prairie	8606 Resources Road	T8V 6S4	55.158017	-118.778517
	Canada	Alberta	Grande Prairie	9837 116th Street Unit 104	T8V 6H6	55.1691218	-118.846172
	Canada	Alberta	Grassland	5001-50 Ave	 T0A1V0	54.820556	-112.685833
	Canada	Alberta	Grimshaw	4527-51 Street	T0H 1W0	56.192717	-117.609739
	Canada	Alberta	Hanna	101 A Palliser Trail	T0J 1P0	51.636622	-111.942473
	Canada	Alberta	High Level	11002 Rainbow Blvd	T0H 1Z0	58.5093728	-117.1393276
	Canada	Alberta	High Prairie	"5101 53rd Ave Store# 9, Phase Ii"	T0G 1E0	55.4328687	-116.4932894
	Canada	Alberta	High River	1204 A 16 Street SE	T1V 2B1	50.57265836	-113.8439279
	Canada	Alberta	High River	402 High Country Dr NW	 T1J0J4	49.6960191	-112.831125
	Canada	Alberta	Hinton	506 Carmichael Ln Unit 103	T7V 1S8	53.395485	-117.603114
	Canada	Alberta	Innisfail	4927 50th St	T4G 1S7	52.027253	-113.948642
	Canada	Alberta	Jasper	626 A Connaught Drive	T0E 1E0	52.8745164	-118.0813421
	Canada	Alberta	Killam	4207 51st A Ave	T0B 2L0	52.792196	-111.842134
	Canada	Alberta	La Crete	10010 99 Ave	T0H 2H0	58.1861945	-116.4056099
	Canada	Alberta	Lac La Biche	10101 101 Ave	T0A 2C1	54.77092	-111.975531
	Canada	Alberta	Lacombe	4730 51st Ave	T4L 2J9	52.464761	-113.726505
	Canada	Alberta	Langdon	724 Centre St NE Bay No 4	T0J 1X1	50.9791514	-113.6757896
	Canada	Alberta	Leduc	5209 Discovery Way Unit 1	T9E 8N8	53.265262	-113.571713
	Canada	Alberta	Leduc	5913 50th St	T9E 6S7	53.27373	-113.549501
	Canada	Alberta	Leduc	8020 Sparrow Drive Unit B	T9E 7G3	53.303258	-113.542673
	Canada	Alberta	Lethbridge	144 Columbia Boulevard	 T1K4J4	49.6758365	-112.875153
	Canada	Alberta	Lethbridge	1607 Mayor Magrath Dr	T1K 2R4	49.676369	-112.8011838
	Canada	Alberta	Lethbridge	206 Stafford Drive South	T1J 4L5	49.696983	-112.834233
	Canada	Alberta	Lethbridge	2639 Scenic Drive N #30	T1H 5L9	49.7279842	-112.8285209
	Canada	Alberta	Lethbridge	"30, 117 Sunridge Road West"	T1K 4J4	49.651792	-112.870022
	Canada	Alberta	Lethbridge	3115 26th Ave N Unit K006	T1H 5P4	49.72752625	-112.7969659
	Canada	Alberta	Lethbridge	3705 Mayormagrath Drive South Unit 15	T1K 8A8	49.65859163	-112.7913828
	Canada	Alberta	Lethbridge	404 G Mayor Magrath Dr North	T1H 6H7	49.703213	-112.809967
	Canada	Alberta	Lethbridge	4401 University Dr Student Union Building	T1K 3M4	49.6778351	-112.8635882
	Canada	Alberta	Lethbridge	4401 University Drive W	 T1K3M4	49.676346	-112.861971
	Canada	Alberta	Lethbridge	473 41 Street S	T1J 4T3	49.694173	-112.780707
	Canada	Alberta	Lethbridge	501 First Ave S Unit L02	T1J 4L9	49.698575	-112.838936
	Canada	Alberta	Lethbridge	550 University Dr W Bay 13	T1J 4T3	49.692582	-112.89283
	Canada	Alberta	Lethbridge	6 Aquitana Blvd W Unit # 50	T1J 5L4	49.672525	-112.9023908
	Canada	Alberta	Lloydminster	5001-18th Street Space D	T9V 0V8	53.253464	-110.005735
	Canada	Alberta	Lloydminster	5508 44th Street	T9V 0B5	53.277928	-110.034251
	Canada	Alberta	Lloydminster	7301 44th Street	T9V 2X1	53.276493	-110.049879
	Canada	Alberta	Manning	404 Main Street	T0H 2M0	56.9218239	-117.6309316
	Canada	Alberta	Maskwacis	Bay 4 Samson Mall	 T0C1N0	52.8345485	-113.450681
	Canada	Alberta	Mayerthorpe	4819 - 42 Ave Unit 3	T0E 1N0	53.946944	-115.137673
	Canada	Alberta	Medicine Hat	140 Maple Avenue SE Unit 102	T1A 8C1	50.042469	-110.6718074
	Canada	Alberta	Medicine Hat	1912 Southview Drive SE	T1A 8L9	50.011325	-110.653559
	Canada	Alberta	Medicine Hat	1941 Strachan Rd SE Unit 104	T1B 0G4	49.9963947	-110.6434791
	Canada	Alberta	Medicine Hat	2882 Box Springs Blvd NW Bay 3 West Side Centre	T1C 0C8	50.0688338	-110.7441559
	Canada	Alberta	Medicine Hat	3292 Dunmore Road SE Unit Fc7	T1B 2R4	50.0036917	-110.6459683
	Canada	Alberta	Medicine Hat	934 Redcliff Dr SW	T1A 5E4	50.0300399	-110.705873
	Canada	Alberta	Medicine Hat	94A 8 St NW	T1A 6P1	50.0499275	-110.6897894
	Canada	Alberta	Milk River	904 Service Road NW	T0K 1M0	49.156516	-112.092285
	Canada	Alberta	Morinville	9521 100 St	T8R 1R2	53.7967974	-113.644633
	Canada	Alberta	Morley	340 East  Road	T0L 1N0	51.1713971	-114.8478834
	Canada	Alberta	Nanton	2401 20th Ave	T0L 1R0	50.345519	-113.768658
	Canada	Alberta	Niton Junction	4912 50 Avenue	T0E 1S0	53.6186298	-115.769706
	Canada	Alberta	Okotoks	200 South Ridge Dr. Unit No 231	T1S 0B2	50.7253685	-113.975082
	Canada	Alberta	Okotoks	420 Big Rock Ln Unit #400	T1S 1A9	50.717779	-113.980438
	Canada	Alberta	Olds	5221 46 Th St	T4H 1P5	51.794771	-114.113025
	Canada	Alberta	Oyen	402 Main St	T0J 2J0	51.3540581	-110.4841996
	Canada	Alberta	Peace River	9816 100th St	T8S 1S2	56.2353651	-117.290543
	Canada	Alberta	Penhold	1380 Robinson Avenue #1	T0M 1R0	52.12809	-113.861924
	Canada	Alberta	Pincher Creek	878 Main Street	T0K 1W0	49.485517	-113.942138
	Canada	Alberta	Ponoka	5-4800 Highway 2A	T4J 1K2	52.68066144	-113.5830709
	Canada	Alberta	Provost	4015 East 57th Ave	T0B 3S0	52.360363	-110.24739
	Canada	Alberta	Raymond	142 N Broadway St	T0K 2S0	49.4641966	-112.6626271
	Canada	Alberta	Red Deer	"#4101, 7414 - 50 Avenue"	T4P 1X7	52.299904	-113.814783
	Canada	Alberta	Red Deer	2085 50th Ave	T4R 1Z4	52.236609	-113.813094
	Canada	Alberta	Red Deer	27 Clearview Market Way Unit 100	T4P 0M9	52.2864265	-113.7699117
	Canada	Alberta	Red Deer	3020 22nd Street Unit 120	T4R 3J5	52.238738	-113.769346
	Canada	Alberta	Red Deer	4747 67th St Unit 516	T4N 6H3	52.288181	-113.808546
	Canada	Alberta	Red Deer	4900 Molly Bannister Dr # 206	T4R 1N9	52.2433047	-113.811156
	Canada	Alberta	Red Deer	5005 100 College Boulevard	 T4N5H5	52.25040284	-113.8258191
	Canada	Alberta	Red Deer	"6702 Golden West Ave Bldg B, Unit 204"	 T4P1A8	52.288821	-113.847477
	Canada	Alberta	Red Deer	6730 Taylor Drive #805	T4P 1K4	52.289991	-113.8405491
	Canada	Alberta	Red Deer	69 Dunlop St #16	T4R 2H6	52.255307	-113.765035
	Canada	Alberta	Red Deer County	149 37400 Hwy 2	T4E 1B9	52.222038	-113.811513
	Canada	Alberta	Redcliff	207 Broadway Ave E	T0J 2P0	50.077272	-110.785753
	Canada	Alberta	Redwater	5040 49 Ave	T0A 2W0	53.94932432	-113.1133543
	Canada	Alberta	Rimbey	5061 50 Ave	T0C 2J0	52.6395536	-114.2384948
	Canada	Alberta	Rocky Mountain House	5207 48th Street #11	T4T 0B1	52.378496	-114.916189
	Canada	Alberta	Rocky View	261055 Crossiron Blvd Fc35	T4A 0G3	51.2028486	-113.9925788
	Canada	Alberta	Sexsmith	10004 - 91 Street	T0H 3C0	55.34529835	-118.7714007
	Canada	Alberta	Sherwood Park	130-300 Amberly Way	T8H 1X8	53.563149	-113.280665
	Canada	Alberta	Sherwood Park	2026 Sherwood Dr Unit #802	T8A 3H9	53.528491	-113.294825
	Canada	Alberta	Sherwood Park	320-220 Lakeland Drive	T8H 0N6	53.55454264	-113.3063144
	Canada	Alberta	Sherwood Park	550 Baseline Road 260	T8H 1Y4	53.542296	-113.267617
	Canada	Alberta	Sherwood Park	"57, 301 Wye Rd"	T8B 0A4	53.5115339	-113.3088104
	Canada	Alberta	Sherwood Park	8005 Emerald Dr. #450	T8A 3H9	53.5651739	-113.2740692
	Canada	Alberta	Siksika	#100 Business Plaza	T0J 3W0	50.8521083	-113.0200234
	Canada	Alberta	Slave Lake	106-202 Main St	T0G 2A0	55.3945521	-114.6515294
	Canada	Alberta	Slave Lake	1500 Main St SW Unit #450	T0G 2A4	55.273444	-114.7859368
	Canada	Alberta	Spruce Grove	104-141 Century Crossing	T7X 0C8	53.54277	-113.879404
	Canada	Alberta	Spruce Grove	205 Jennifer Heil Way #104	T7X 4J5	53.549673	-113.935317
	Canada	Alberta	Spruce Grove	"311,11 Westwind Drive"	T7X 1R3	53.5640622	-113.8845516
	Canada	Alberta	Spruce Grove	319 1st Ave	T7X 3A2	53.5418209	-113.9008718
	Canada	Alberta	Spruce Grove	96 Campsite Rd Unit #20	T7X 4J3	53.53912075	-113.9338391
	Canada	Alberta	St Albert	#470 - 10 Rose Gate St-Albert	T8N 7Y3	53.630415	-113.657886
	Canada	Alberta	St Albert	10 McKenney Ave Unit 204	T8N 5S8	53.6425931	-113.6284816
	Canada	Alberta	St Albert	204 2 Hebert Rd	T8N 2E7	53.62261309	-113.6079381
	Canada	Alberta	St Albert	5 Giroux Road Unit 430 St. Albert	T8N 5S8	53.6539417	-113.6318186
	Canada	Alberta	St Paul	4325 50 Ave	T0A 3A3	53.991365	-111.294848
	Canada	Alberta	Stettler	4639 59th St	T0C 2L0	52.3239261	-112.7179488
	Canada	Alberta	Stony Plain	4300 South Park Dr Unit #190	T7Z 2W7	53.5390513	-113.9814906
	Canada	Alberta	Stony Plain	4410 - 48th Street Unit 24	T7Z 1L4	53.53473	-114.00318
	Canada	Alberta	Strathmore	616 B Westridge Rd	T1P 1H8	51.0383747	-113.4041395
	Canada	Alberta	Sundre	308 Main Ave W	T0M 1X0	51.796822	-114.642985
	Canada	Alberta	Swan Hills	4619 Federated Road	T0G 2C0	54.71004174	-115.3937655
	Canada	Alberta	Sylvan Lake	4705 Lakeshore Dr	T4S 1C6	52.31119362	-114.0937913
	Canada	Alberta	Sylvan Lake	Unit-440 3715 47 Avenue	T4S 1A1	52.30431505	-114.0775345
	Canada	Alberta	Taber	5306 - 48th Ave	T1G 1S2	49.784615	-112.144529
	Canada	Alberta	Three Hills	304 6th Ave North	T0M 2A0	51.7024122	-113.268475
	Canada	Alberta	Tofield	5116-46 Avenue Units 101 & 101A	T0B 4J0	53.3699134	-112.6686537
	Canada	Alberta	Tsuut'Ina	11501 Buffalo Run Blvd Unit 917	T3T 0E4	50.9419372	-114.1447576
	Canada	Alberta	Valleyview	3808 Highway Street Unit# 1	T0H 3N0	55.0500662	-117.2820219
	Canada	Alberta	Vegreville	6021- 50 Avenue Unit 103	T9C 1E8	53.493749	-112.038486
	Canada	Alberta	Vermillion	#4121 51st St Unit 101	T9X 0B4	53.344664	-110.85666
	Canada	Alberta	Viking	5120-50 Avenue	T0B 4N0	53.096752	-111.77791
	Canada	Alberta	Vulcan	120 Centre Street Suite E	T0L 2B0	50.4062686	-113.2579428
	Canada	Alberta	Wainwright	2901 - 13 Th Avenue	 T9W0A2	52.8373563	-110.861316
	Canada	Alberta	Wainwright	635 14th Ave	T9W 1B3	52.8429819	-110.8604653
	Canada	Alberta	Waterton Park	307 Windflower Avenue	T0K 2M0	49.0485695	-113.9111563
	Canada	Alberta	Westlock	10211 100 St Unit B	T7P 2G5	54.1521392	-113.8537137
	Canada	Alberta	Wetaskiwin	4009 56th St W	T9A 2B1	52.974381	-113.35132
	Canada	Alberta	Wetaskiwin	4802 - 56 Street Unit 102	T9A 1V8	52.96919205	-113.3908149
	Canada	Alberta	Whitecourt	3742 Kepler Street	T7S 0A2	54.1249479	-115.660603
	Canada	Alberta	Whitecourt	4223 52 Avenue Unit #8	T7S 1X6	54.142271	-115.669016
	Canada	British Columbia	Abbotsford	1379 Sumas Way Suite # 100	V2S 8M9	49.0273877	-122.2660919
	Canada	British Columbia	Abbotsford	1975 McCallum Road Unit 101	V2S 3N3	49.0381826	-122.2935384
	Canada	British Columbia	Abbotsford	2047 Sumas Way Unit 18	V2S 8H6	49.03851035	-122.2705735
	Canada	British Columbia	Abbotsford	2054 Whatcom Road	V3G 2K8	49.0407026	-122.2200558
	Canada	British Columbia	Abbotsford	2618 McMillian Rd Suite #108	V3G 1C4	49.049643	-122.260098
	Canada	British Columbia	Abbotsford	2965 Immel Street	V2S 4K9	49.055594	-122.271712
	Canada	British Columbia	Abbotsford	3122 Mt. Lehman Road D125	V2T 0C5	49.058116	-122.378251
	Canada	British Columbia	Abbotsford	31221 Peardonville Rd	V2T 6K9	49.0464499	-122.3592549
	Canada	British Columbia	Abbotsford	31943 S Fraser Way Suite# 104	V2T 1V5	49.04933225	-122.3389496
	Canada	British Columbia	Abbotsford	32660 George Ferguson Way Suite # 101	V2T 4E6	49.05478375	-122.3194239
	Canada	British Columbia	Abbotsford	32900 South Fraser Way Unit 404	V2S 5A1	49.0483831	-122.310978
	Canada	British Columbia	Abbotsford	33640 S Fraser Way Suite 101	V2S 2B9	49.04853255	-122.2927762
	Canada	British Columbia	Agassiz	#1-1824 #9 Highway	V0M 1A0	49.233333	-121.766667
	Canada	British Columbia	Aldergrove	26361 Fraser Hwy B110	V4W 2Z7	49.0602179	-122.4949965
	Canada	British Columbia	Aldergrove	27544 Fraser Hwy.	V4W 3N5	49.0576819	-122.4617802
	Canada	British Columbia	Armstrong	3300 Smith Dr #12	V0E 1B1	50.44670416	-119.1841477
	Canada	British Columbia	Barriere	397 Russell Street	V0E 1E0	51.1603107	-120.1220141
	Canada	British Columbia	Brentwood Bay	7103 West Saanich Road Suite 2B	V8M 1R1	48.575362	-123.445337
	Canada	British Columbia	Burnaby	1895 Willingdon Ave	V5C 5R6	49.2676227	-123.003518
	Canada	British Columbia	Burnaby	2251 Holdom Avenue #110	V5B 0A2	49.263972	-122.981407
	Canada	British Columbia	Burnaby	2900 Bainbridge Ave	V5A 1W5	49.25835695	-122.9553481
	Canada	British Columbia	Burnaby	3294 Production Way #120	V5A 4R4	49.25450689	-122.9187315
	Canada	British Columbia	Burnaby	3790 Canada Way Suite 101	V5G 1G4	49.254586	-123.021544
	Canada	British Columbia	Burnaby	4161 Hastings Street Suite 102	V5C 2J3	49.281159	-123.012326
	Canada	British Columbia	Burnaby	4429 Kingsway Unit 1B	V5H 2A1	49.2313777	-123.0047535
	Canada	British Columbia	Burnaby	4700 Kingsway Fc7	V5H 4M1	49.2275267	-123.0005118
	Canada	British Columbia	Burnaby	4737 Willingdon Ave	V5H 4H8	49.2426765	-123.004045
	Canada	British Columbia	Burnaby	4747 Kingsway	V5H 2C3	49.2280822	-122.997835
	Canada	British Columbia	Burnaby	5093 Canada Way	V5E 3N1	49.2393218	-122.963544
	Canada	British Columbia	Burnaby	6200 McKay Ave Unit 10	V5H 4L8	49.22678965	-123.0043759
	Canada	British Columbia	Burnaby	6569 Kingsway Unit 102 B	V5E 1E2	49.2196001	-122.9683
	Canada	British Columbia	Burnaby	6626B Hastings Unit 146B	 V5B1S2	49.2798348	-122.966114
	Canada	British Columbia	Burnaby	7155 Kingsway Suite# 110	V5E 2V1	49.21881775	-122.9567867
	Canada	British Columbia	Burnaby	7215 Canada Way	V5E 3R7	49.2242261	-122.9418
	Canada	British Columbia	Burnaby	7515 Market Crossing Suite #150	V5C 1C7	49.1980659	-122.9788287
	Canada	British Columbia	Burnaby	7645 Royal Oak Ave	V5J 4K2	49.213489	-122.988396
	Canada	British Columbia	Burnaby	8888 University Dr. Student Union	V5A 4Y6	49.277591	-122.917204
	Canada	British Columbia	Burnaby	"8916 University High St Unit R6, Cornerstore Bldg"	V5A 4Y6	49.2780845	-122.912071
	Canada	British Columbia	Burnaby	9855 Austin Road Unit 265	V3J 1N4	49.2519477	-122.896817
	Canada	British Columbia	Burns Lake	503 Highway 16	V0J 1E0	54.231431	-125.763542
	Canada	British Columbia	Cache Creek	1209 Hwy 97	V0K 1H0	50.810385	-121.324885
	Canada	British Columbia	Campbell River	1320 Island Highway Unit #92	V9W 8C9	50.0320818	-125.2468593
	Canada	British Columbia	Campbell River	1400 Dogwood Street Suite # 320	V9W 3A6	50.028741	-125.249389
	Canada	British Columbia	Campbell River	220 Dogwood St Near 2nd Avenue	V9W 2X9	50.011484	-125.24758
	Canada	British Columbia	Campbell River	801 Hilchey Road Unit #207	V9W 0B8	49.972946	-125.2449554
	Canada	British Columbia	Castlegar	2001 Columbia Ave	V1N 2W9	49.294963	-117.652973
	Canada	British Columbia	Castlegar	425 Columbia Ave Unit 2	V1N 1G8	49.3251577	-117.666037
	Canada	British Columbia	Chase	"305 Brooke Dr , Unit 1"	V0E 1M0	50.8131886	-119.689974
	Canada	British Columbia	Chemainus	9759  Rd	V0R 1K0	48.9219578	-123.7182463
	Canada	British Columbia	Chetwynd	4625 Veterans Way	V0C 1J0	55.695562	-121.618954
	Canada	British Columbia	Chilliwack	45280 Luckakuck Way	V2R 3C7	49.142514	-121.972461
	Canada	British Columbia	Chilliwack	45575 Keith Wilson Road Unit 1	V2R 0M6	49.1041728	-121.9633363
	Canada	British Columbia	Chilliwack	46030 Yale Rd Unit #7	V2P 7V2	49.170041	-121.954114
	Canada	British Columbia	Chilliwack	46298D Yale Rd E	V2P 2P6	49.172789	-121.947034
	Canada	British Columbia	Chilliwack	6014 Vedder Rd Unit #4	V2R 5M4	49.110967	-121.957839
	Canada	British Columbia	Chilliwack	8032 Lickman Road	V2R 3Z9	49.147667	-122.006647
	Canada	British Columbia	Chilliwack	8249 Eagle Landing Parkway Unit 212	V2R 5R8	49.1525391	-121.9785066
	Canada	British Columbia	Clearwater	365 Murtle Crescent Unit 213	 V0E1N1	51.649731	-120.039009
	Canada	British Columbia	Cloverdale	17755 64th Ave Suite #101	V3S 1C6	49.119001	-122.731489
	Canada	British Columbia	Colwood	"345 Latoria Blvd. #102, Unit D-04"	V9C 4L8	48.4067908	-123.4880079
	Canada	British Columbia	Comox	1966 Guthrie Road 101A	V9N 3P7	49.6897188	-124.9327574
	Canada	British Columbia	Coquitlam	100 Schoolhouse St Suite # 501	V3K 6V9	49.2337573	-122.853818
	Canada	British Columbia	Coquitlam	1066 A Austin Ave	V3K 3P3	49.2490361	-122.8635839
	Canada	British Columbia	Coquitlam	1410 Parkway Blvd Unit C-04	V3E 3J7	49.296898	-122.802796
	Canada	British Columbia	Coquitlam	1914 Como Lake Avenue	V3J 3R3	49.2633141	-122.839553
	Canada	British Columbia	Coquitlam	2662 Austin Ave Unit #9	V3K 6C4	49.24884595	-122.8169979
	Canada	British Columbia	Coquitlam	2733 Barnett Hwy Unit #101	V3E 1K9	49.278399	-122.811751
	Canada	British Columbia	Coquitlam	2929 Barnet Highway Unit 2612	V3B 5R5	49.2807024	-122.7997039
	Canada	British Columbia	Coquitlam	3380 David Avenue Unit 2	V3B 1T3	49.29291592	-122.7603174
	Canada	British Columbia	Coquitlam	602 Clarke Rd #3	V3J 3X6	49.263725	-122.887066
	Canada	British Columbia	Courtenay	1095 Cliffe Avenue	V9N 2J9	49.687992	-124.994514
	Canada	British Columbia	Courtenay	2-2760 Cliffe Ave	V9N 2L6	49.67707706	-124.9832567
	Canada	British Columbia	Courtenay	"382 Lerwick Road 110, Bay #6"	V9N 9E5	49.71164975	-124.9666782
	Canada	British Columbia	Cranbrook	1000  Street North	V1C 3S3	49.5214258	-115.7571228
	Canada	British Columbia	Creston	1415 Canyon St	V0B 1G0	49.095436	-116.508815
	Canada	British Columbia	Dawson Creek	10504 8th St	V1G 3R1	55.754276	-120.223867
	Canada	British Columbia	Dawson Creek	1517 Alaska Avenue	V1G 1Z8	55.763523	-120.2451535
	Canada	British Columbia	Delta	1080 Cliveden Ave Unit 10	V3M 6G6	49.1711438	-122.9465587
	Canada	British Columbia	Delta	11146 84th Avenue Suite C	V4C 2L7	49.155952	-122.91386
	Canada	British Columbia	Delta	1320 56th St	V4L 2A4	49.027261	-123.068425
	Canada	British Columbia	Delta	5263A 48th Ave	V4K 1W4	49.0900271	-123.0844185
	Canada	British Columbia	Delta	6421 Scott Road	V4E 3G3	49.119619	-122.890312
	Canada	British Columbia	Delta	7031 120 Th Street Unit 7059	V4E 2A9	49.132307	-122.892041
	Canada	British Columbia	Delta	7218 Progress Way Unit 1A	V4G 1E7	49.133315	-123.023837
	Canada	British Columbia	Delta	7351 120th St	V4C 6P5	49.135104	-122.891481
	Canada	British Columbia	Delta	7950 Huston Road Unit 101	 V4G1C2	49.145511	-123.003782
	Canada	British Columbia	Duncan	2900 Drinkwater Road Suite # 301	V9L 6C6	48.8026473	-123.7176154
	Canada	British Columbia	Duncan	330 Trans Canada Hwy	V9L 3R2	48.7776802	-123.6983796
	Canada	British Columbia	Enderby	802 George St	V0E 1V0	50.549827	-119.140325
	Canada	British Columbia	Esquimalt	#102 1503 Admirals Road	V9A 2P8	48.4474182	-123.4273859
	Canada	British Columbia	Fairmont Hot Springs	4966 Fairmont Frontage Road	V0B 1L1	50.338539	-115.856415
	Canada	British Columbia	Fanny Bay	6856 S Island Hwy	V0R 1W0	49.50751654	-124.8290962
	Canada	British Columbia	Fernie	441 Highway #3	V0B 1M0	49.5049091	-115.0684986
	Canada	British Columbia	Fort Langley	23160 - 96 Avenue #104	V1M 2S1	49.1686313	-122.5813602
	Canada	British Columbia	Fort Nelson	4904 50 Ave N Unit 1	V0C 1R0	58.8051818	-122.6998293
	Canada	British Columbia	Fort St. James	470 Stuart Drive West Unit #9	V0J 1P0	49.885162	-99.963467
	Canada	British Columbia	Fort St. John	10008 97th Ave Fort St John	V1J 5P3	49.8426868	-99.971031
	Canada	British Columbia	Fort St. John	"11203, 11127 Alaska Road South Unit B2b Fort St John"	V1J 6N2	49.842041	-99.947498
	Canada	British Columbia	Fort St. John	9316 Alaska Rd	V1J 6L5	49.8648872	-99.9599865
	Canada	British Columbia	Fraser Lake	406-416 McMillan Avenue	V0J 1S0	49.8708483	-99.3562661
	Canada	British Columbia	Fruitvale	1949 A Main St	V0G 1L0	49.502112	-97.997607
	Canada	British Columbia	Gibsons	900  Way Unit 24	V0N 1V7	51.147781	-100.051971
	Canada	British Columbia	Golden	1402 N Trans Canada Hwy	V0A 1H1	49.971379	-97.010268
	Canada	British Columbia	Hope	63100 Flood  Rd	V0X 1L2	50.6319676	-96.989242
	Canada	British Columbia	Hope	677 Old  Princetown Way Cru-2	V0X 1L4	49.876635	-97.409066
	Canada	British Columbia	Hope	761 Water St	V0X 1L0	49.711991	-96.995498
	Canada	British Columbia	Houston	3350 10th Street Unit #1	V0J 1Z0	49.18101	-99.664999
	Canada	British Columbia	Invermere	305 3rd Ave Unit 1	V0A 1K7	49.69101326	-97.26516351
	Canada	British Columbia	Kamloops	"#1, 740 Fortune Drive"	 V2B2L1	50.25609	-96.061274
	Canada	British Columbia	Kamloops	111 Oriole Rd Unit #12	V2C 4N6	50.087547	-96.938982
	Canada	British Columbia	Kamloops	1150 Hillside Dr Unit 103	V2E 2N1	49.272276	-100.986191
	Canada	British Columbia	Kamloops	1203 A Summit Dr	V2C 6C5	50.251168	-99.838362
	Canada	British Columbia	Kamloops	1320 Trans Canada Hwy W Store # 135	V1S 1J2	49.192535	-98.094659
	Canada	British Columbia	Kamloops	316 Victoria St	V2C 2A5	49.34711671	-97.36470967
	Canada	British Columbia	Kamloops	5172 Dallas Drive	V2C 5W9	49.821366	-96.93668
	Canada	British Columbia	Kamloops	655 Tranquille Rd	V2B 3H7	50.22621975	-99.44343385
	Canada	British Columbia	Kamloops	775 McGill Road Unit Cru #103	V2C 0B8	49.6059901	-97.0383208
	Canada	British Columbia	Kamloops	International Building	V2C 0C8	49.936564	-96.841323
	Canada	British Columbia	Kelowna	#11 3818 Gordon Drive Cook And Gordon	V1W 3G8	50.567585	-96.22044
	Canada	British Columbia	Kelowna	101-1100 Lawrence Avenue Lawrence And Gordon	V1Y 6M4	49.972627	-98.285013
	Canada	British Columbia	Kelowna	110-1720 Innovation Drive	V1V 2Y4	49.975132	-98.32712
	Canada	British Columbia	Kelowna	137 Hwy 33 W	V1X 1X6	49.6572839	-96.4566563
	Canada	British Columbia	Kelowna	1440 Pandosy St Downtown	V1Y 8E6	51.228464	-101.348047
	Canada	British Columbia	Kelowna	1640 Leckie Rd Unit # 100	V1X 7C6	49.4596612	-97.4359644
	Canada	British Columbia	Kelowna	1740 Springfield Rd	V1Y 5V6	50.772846	-101.279134
	Canada	British Columbia	Kelowna	2271 Harvey Ave Unit #490	V1Y 6H2	50.156348	-96.899218
	Canada	British Columbia	Kelowna	2515 Enterprise Way	V1X 7K2	50.134509	-96.883559
	Canada	British Columbia	Kelowna	3001 Pandosy Street Groves And Pandosy	 V1Y1W3	49.62086431	-100.2666378
	Canada	British Columbia	Kelowna	3699 Hwy 97 N Unit #101	V1X 5C3	49.7667268	-97.1551348
	Canada	British Columbia	Kelowna	538 Yates Rd Unit 7	V1V 2V8	49.44454065	-96.9853514
	Canada	British Columbia	Kelowna	5533 Airport Way #8	V1V 1S1	49.545587	-96.689891
	Canada	British Columbia	Kelowna	Unit 4-5 515 Harvey Ave	V1Y 6C7	49.526627	-96.685672
	Canada	British Columbia	Keremeos	410 Highway 3A	V0X 1N2	50.130185	-97.322649
	Canada	British Columbia	Kimberley	460 Ross St	V1A 2C6	50.0864	-97.21955
	Canada	British Columbia	Kitimat	952 Wakashan Ave	V8C 2G3	52.106739	-101.252045
	Canada	British Columbia	Ladysmith	740 Esplanade St	V9G 1B3	53.823313	-101.2537
	Canada	British Columbia	Lake Cowichan	108 B Southshore Rd	V0R 2G0	55.744455	-97.853488
	Canada	British Columbia	Langford	1016 McCallum Unit 104	V9B 4C6	49.854362	-100.921332
	Canada	British Columbia	Langley	19653 Willowbrook Drive 150	V3H 5E7	49.188424	-97.93965
	Canada	British Columbia	Langley	19705 Fraser Highway Unit 436	V3A 7E9	49.853792	-97.165065
	Canada	British Columbia	Langley	19862 96th Ave Unit 8	V1M 3C1	49.89879083	-97.07186875
	Canada	British Columbia	Langley	20202 66th Avenue	V2Y 1P3	49.88195525	-97.15983127
	Canada	British Columbia	Langley	20300 Fraser Highway Unit 201	V3A 4E6	49.8946897	-97.2006307
	Canada	British Columbia	Langley	20349 88th Ave Unit 3	V3A 4P8	49.9439113	-97.19615785
	Canada	British Columbia	Langley	20759 40th Avenue Unit #104	V3A 2X9	49.933818	-97.164139
	Canada	British Columbia	Langley	20821 Fraser Hwy Unit #59	V3A 4G7	49.8354846	-97.1139
	Canada	British Columbia	Langley	22372 Fraser Hwy #101	V3A 4H6	49.904137	-97.066384
	Canada	British Columbia	Langley	26426 - 56th Avenue Unit A	V4W 3Z3	49.847033	-97.196313
	Canada	British Columbia	Langley	4061 200th St #119	V3A 1K8	49.907062	-97.176035
	Canada	British Columbia	Langley	5958 200th Street	V3A 1N3	49.8837064	-97.1801863
	Canada	British Columbia	Langley	6830 216th Street	V0X 1T0	49.8984463	-97.0751884
	Canada	British Columbia	Langley	7150 200th St Suite #200	V2Y 3B9	49.918047	-97.129253
	Canada	British Columbia	Langley	8850 Walnut Grove Dr Unit 102B	V1M 2C9	49.8469	-97.1887
	Canada	British Columbia	Lillooet	55 Moha Rd	V0K 1V0	49.8858096	-97.0612875
	Canada	British Columbia	Mackenzie	275  Boulevard	V0J 2C0	49.8846559	-97.1981751
	Canada	British Columbia	Maple Ridge	11900 Haney Place Unit #F5	V2X 8R9	49.8256667	-97.1151771
	Canada	British Columbia	Maple Ridge	11969 224th St	V2X 6B4	49.89481	-97.057234
	Canada	British Columbia	Maple Ridge	20522 Lougheed Hwy	V2X 3P8	49.8984703	-97.06115986
	Canada	British Columbia	Maple Ridge	22838 Lougheed Hwy	V2X 2V6	49.8945807	-97.06852676
	Canada	British Columbia	Maple Ridge	23981 Dewdney Trunk Road Unit 200	V4R 1W1	49.8249518	-97.2005079
	Canada	British Columbia	Merritt	2190 A Voght St	V1K 1B8	49.821209	-97.202777
	Canada	British Columbia	Merritt	3623 Dewolf Way Unit #2	V1K 1B8	49.919336	-97.206188
	Canada	British Columbia	Mill Bay	#5 2690  Rd	V0R 2P0	49.85778	-97.106553
	Canada	British Columbia	Mission	29677 Lougheed Highway	V4S 1H3	49.81836	-97.198883
	Canada	British Columbia	Mission	31956 Lougheed Highway Unit E003	 V2V6K5	49.8469	-97.1887
	Canada	British Columbia	Mission	32670 Lougheed Hwy #76	V2V 1A7	49.95284	-97.075682
	Canada	British Columbia	Mission	34981 Lougheed Hwy	V2V 6T1	49.938444	-97.116663
	Canada	British Columbia	Mission	7871 Stave Lake Street B110	 V2V6B2	49.9016482	-97.2113031
	Canada	British Columbia	Nanaimo	1150 N. Terminal Ave. Unit 4	V9S 5L6	49.857389	-97.202316
	Canada	British Columbia	Nanaimo	1275 S Island Highway Unit 2	V9R 7A4	49.82272835	-97.14956521
	Canada	British Columbia	Nanaimo	1925 Bowen Rd Unit # 204	V9S 1H1	49.878997	-97.222845
	Canada	British Columbia	Nanaimo	4146 Departure Bay Rd	V9T 4B7	49.8469	-97.1887
	Canada	British Columbia	Nanaimo	4750 Rutherford Road Unit 131	V9T 4K6	49.90063168	-97.14068934
	Canada	British Columbia	Nanaimo	540 Fifth Street Unit 101	V9R 1P1	49.93859356	-97.09235348
	Canada	British Columbia	Nanaimo	6338 Metral Drive Unit #1	V9T 2L9	49.9134373	-97.11510046
	Canada	British Columbia	Nanaimo	650 Terminal Avenue Unit 113	V9R 5E2	49.8149836	-97.1518839
	Canada	British Columbia	Nanaimo	6560 Island Hwy N #104	V9V 1K8	49.949462	-97.152806
	Canada	British Columbia	Nanaimo	6631 Island Hwy N Unit F8	V9T 4T7	49.886014	-97.264112
	Canada	British Columbia	Nanaimo	"900 5th Street Room 1, Bldg 165"	V9R 5S5	49.891161	-97.147785
	Canada	British Columbia	Nelson	1150 Lakeside Drive Unit 117	V1L 5Z3	49.81153	-97.13381443
	Canada	British Columbia	Nelson	327 Baker St	V1L 4H6	49.8744597	-97.116401
	Canada	British Columbia	New Hazelton	4565 10th Avenue Bay 1	V0J 2J0	49.883509	-97.298364
	Canada	British Columbia	New Westminster	1005 Columbia Street #120	V3M 6H5	49.958793	-97.0899
	Canada	British Columbia	New Westminster	106 408 E Columbia Street	V3L 0K5	49.892568	-97.139989
	Canada	British Columbia	New Westminster	435 Columbia Street Suite 100	V3L 1A9	49.79238575	-97.15661255
	Canada	British Columbia	New Westminster	521 Sixth St	V3L 3B9	49.84357992	-97.19035475
	Canada	British Columbia	New Westminster	800 Carnarvon Street	V3M 3P1	49.887396	-97.140113
	Canada	British Columbia	New Westminster	800 McBride Blvd Unit # 21A	V3L 2B8	49.890625	-97.143025
	Canada	British Columbia	New Westminster	805 Boyd Street Bldg K Unit K1	V3M 5X2	49.8840328	-97.2982959
	Canada	British Columbia	New Westminster	917 12th Street	V3M 4K7	49.8544883	-97.07622455
	Canada	British Columbia	North Vancouver	1034 Marine Dr	V7P 1S6	49.894443	-97.11372
	Canada	British Columbia	North Vancouver	107 East 3rd Street	V7M 2G2	49.883665	-97.31286
	Canada	British Columbia	North Vancouver	130-333 Brooksbank Ave	V7J 3S8	49.857958	-97.26278
	Canada	British Columbia	North Vancouver	1356 Lonsdale Ave	V7M 2H8	49.88070848	-97.32382986
	Canada	British Columbia	North Vancouver	150-1199 Lynn Valley Rd	V7J 3H2	49.878085	-97.144771
	Canada	British Columbia	North Vancouver	228 W Esplanade	V7M 3M6	49.88218974	-97.12427853
	Canada	British Columbia	North Vancouver	2455 Dollarton Hwy. Unit 120	V7H 1A6	49.910617	-97.081833
	Canada	British Columbia	North Vancouver	2916 Lonsdale Ave Suite 104	V7N 4H9	49.8325034	-97.0459387
	Canada	British Columbia	North Vancouver	3026 Edgemont Boulevard	V7R 2N4	49.889747	-97.153175
	Canada	British Columbia	North Vancouver	3650 Mt Seymour Pkwy Unit 152	V7H 2Y5	49.8648656	-97.1466991
	Canada	British Columbia	North Vancouver	"Capilano University 2055 Purcell Way, Birch Bldg."	V7J 3H5	49.900731	-96.985702
	Canada	British Columbia	Oliver	35609 Hwy 97	V0H 1T0	49.862504	-97.311871
	Canada	British Columbia	"One Hundred Mile House, Bc"	#1-481 Alder Avenue	V0K 2E0	49.904344	-97.155222
	Canada	British Columbia	Osoyoos	8111 Main St #107	V0H 1V0	49.863112	-97.132228
	Canada	British Columbia	Parksville	491C E Island Highway	V9T 2H1	49.827059	-97.085182
	Canada	British Columbia	Parksville	826 West Island Hwy	V9P 2B7	49.8710908	-97.1534877
	Canada	British Columbia	Peachland	"#20, 5500 Clements Crescent"	V0H 1X5	49.9015	-97.2102
	Canada	British Columbia	Penticton	1636 Main Sreet #110	V2A 5G8	49.896983	-97.170465
	Canada	British Columbia	Penticton	2735 Skaha Lake Road Unit #125	V2A 9B8	49.844851	-97.180533
	Canada	British Columbia	Penticton	300 Riverside Drive	V2A 5Y5	49.8902752	-97.2008417
	Canada	British Columbia	Penticton	437 Martin Street Suite # 109	V2A 5L1	49.9546964	-97.14593666
	Canada	British Columbia	Pitt Meadows	12473 Harris Rd Unit 101	V3Y 2J4	49.882228	-97.07653
	Canada	British Columbia	Port Alberni	3753 10th Ave @ Redford # 9B	V9Y 4W3	49.899922	-97.135406
	Canada	British Columbia	Port Alberni	4706 Johnston Road	V9Y 5M4	47.6408592	-65.68286376
	Canada	British Columbia	Port Coquitlam	1475 Prairie Ave Suite 111B	V3B 1T3	47.627308	-65.682463
	Canada	British Columbia	Port Coquitlam	"1502 Broadway St Cru 207, #3110"	V3C 2M8	47.711169	-65.707088
	Canada	British Columbia	Port Coquitlam	1971 Lougheed Highway Unit 3150	V3B 0K2	46.471517	-64.722733
	Canada	British Columbia	Port Coquitlam	2160 Hawkins Street	V3B 8B2	48.003994	-66.678742
	Canada	British Columbia	Port Coquitlam	2540 Shaughnessy St Suite # 114	V3C 3W4	46.217245	-64.300126
	Canada	British Columbia	Port Coquitlam	2764 Lougheed Hwy Unit 403	V3B 6P2	47.793347	-64.943229
	Canada	British Columbia	Port Hardy	8950 Granville Street Unit 101	V0N 2P0	48.0603195	-66.36950686
	Canada	British Columbia	Port McNeill	311 Hemlock St #3	V0N 2R0	46.1036767	-64.7063361
	Canada	British Columbia	Port Moody	2814 St Johns St #2	V3H 2C1	46.084898	-64.733786
	Canada	British Columbia	Port Moody	400 Capilano Road Unit 6	V3H 0E1	46.0956696	-64.7611603
	Canada	British Columbia	Powell River	7100 Alberni Street Unit 29	V8A 5K9	46.0984992	-64.7565663
	Canada	British Columbia	Prince George	1010 Victoria St	V2L 2L2	47.363453	-68.330399
	Canada	British Columbia	Prince George	2324 Ferry Avenue Unit 103	V2N 5E8	47.3726369	-68.3168228
	Canada	British Columbia	Prince George	2340 Westwood Dr	V2N 4H3	47.375995	-68.31069
	Canada	British Columbia	Prince George	3055 Massey Dr Unit Fc06	V2N 2S9	47.395259	-68.341378
	Canada	British Columbia	Prince George	3371 8th Ave	V2M 1N1	46.449916	-67.612767
	Canada	British Columbia	Prince George	6477 Hart Hwy	V2K 3A4	45.988852	-66.651752
	Canada	British Columbia	Prince George	6565 Southridge Ave Unit-C0005	V2N 6Z4	45.941353	-66.666609
	Canada	British Columbia	Prince Rupert	601 2nd Ave W	V8J 1H4	45.93482215	-66.66542909
	Canada	British Columbia	Princeton	245 Hwy 3	V0X 1W0	45.946291	-66.684685
	Canada	British Columbia	Quesnel	464 Reid St	V2J 2M6	45.976977	-66.648611
	Canada	British Columbia	Quesnel	775 Rita Road Unit # 200	V2J 0C2	45.962648	-66.644974
	Canada	British Columbia	Radium Hot Springs	4921 Hwy-93	V0A 1M0	45.944645	-66.645267
	Canada	British Columbia	Revelstoke	1802 Trans Canada Hwy	V0E 2S0	45.306346	-66.1951921
	Canada	British Columbia	Richmond	#134 - 10111 No. 3 Road	V7A 1W6	47.048697	-67.73982
	Canada	British Columbia	Richmond	#165 - 11700 Cambie Road	V6X 2C7	47.0616939	-67.76015723
	Canada	British Columbia	Richmond	101 - 7900 Westminster Hwy	V6X 1A5	45.51994	-65.83264
	Canada	British Columbia	Richmond	12391 Bridgeport Rd	V6V 1J4	46.99924865	-65.56782
	Canada	British Columbia	Richmond	14331 Entertainment Blvd.	V6W 1K2	47.019881	-65.444827
	Canada	British Columbia	Richmond	1530 - 4777 McClelland Rd	V6X 0M5	47.030582	-65.49054
	Canada	British Columbia	Richmond	3380 Grant McConachie Way Domestic Terminal Level 3	V7B 0A5	47.003787	-65.542806
	Canada	British Columbia	Richmond	3740 Chatham Street Unit 3	V7E 2Z3	46.111033	-64.779907
	Canada	British Columbia	Richmond	6060 Blundell Road 110	V7C 1H8	46.094501	-64.782718
	Canada	British Columbia	Richmond	6551 No. 3 Road Unit 2445	V6Y 2B6	46.122084	-64.84868195
	Canada	British Columbia	Richmond	8555 Sea Island Way Unit 130	V6X 0A8	46.0759673	-64.8027944
	Canada	British Columbia	Richmond	8671 No 1 Rd Unit 6	V7C 1V2	46.1333533	-64.8856629
	Canada	British Columbia	Richmond	9100 Blundell Road 150	V6Y 3X9	46.088636	-64.77603
	Canada	British Columbia	Richmond	Fc-2 Yvr West Chevron Expansio	V7B 1Y7	46.102384	-64.815747
	Canada	British Columbia	Richmond	"Unit 105, 3675 Westminster Hwy Suite A"	V7C 5V2	46.13004	-64.770872
	Canada	British Columbia	Rosedale	#100-53003 Bunker Road	V0X 1X0	45.992939	-67.245558
	Canada	British Columbia	Rossland	1997 Columbia Ave	V0G 1Y0	47.243281	-65.084831
	Canada	British Columbia	Saanichton	2138 B Keating Cross Road	V8M 2A6	45.833204	-66.489397
	Canada	British Columbia	Salmo	519 B Railway Ave	V0G 1Z0	50.1153446	-122.9584157
	Canada	British Columbia	Salmon Arm	250 Trans Canada Hwy	V1E 4N3	49.2847	-123.1217
	Canada	British Columbia	Salmon Arm	2890 10th Ave NE Station Main	V1E 2S7	52.126004	-122.121457
	Canada	British Columbia	Sechelt	5755 Cowrie Street Unit 24	V0N 3A0	50.0227137	-119.4052296
	Canada	British Columbia	Shawnigan Lake	1770 Shawnigan-Mill Bay Rd #1	V0R 2W0	49.102378	-97.549725
	Canada	British Columbia	Sicamous	617 Trans Canada Hwy E	V0E 2V0	50.909762	-97.218505
	Canada	British Columbia	Sidney	#300-9810 Seventh Street	V8L 4W6	51.1852534	-98.345135
	Canada	British Columbia	Smithers	1323 Main St	V0J 2N0	49.9487121	-98.9365049
	Canada	British Columbia	Sooke	6660  Rd Unit 1280	 V9Z0A5	50.061781	-96.5085463
	Canada	British Columbia	Sorrento	1258 Trans Canada Hwy.	V0E 2W0	49.226482	-100.058669
	Canada	British Columbia	Sparwood	131 Aspen Drive Unit #2	V0B 2G0	49.833162	-99.962562
	Canada	British Columbia	Squamish	1321 Pemberton Avenue Unit #7D	 V8B0C4	49.823217	-99.962174
	Canada	British Columbia	Squamish	40147 Glenalder Place Unit #104	V8B 0G2	49.885162	-99.963467
	Canada	British Columbia	Summerland	13604 Victoria Road Unit 18	V0H 1Z0	49.8426868	-99.971031
	Canada	British Columbia	Surrey	10070 152 Street Unit 164	V3R 8X8	49.842041	-99.947498
	Canada	British Columbia	Surrey	101-7750 128th St	V3W 0R6	49.8648872	-99.9599865
	Canada	British Columbia	Surrey	10153 King George Blvd Unit 710	V3T 2W1	49.8708483	-99.3562661
	Canada	British Columbia	Surrey	10355  152 Street Suite 1406	V3R 7C1	49.502112	-97.997607
	Canada	British Columbia	Surrey	10392 King George Blvd Unit A	V3T 2W5	51.147781	-100.051971
	Canada	British Columbia	Surrey	12080 Nordel Way Unit #137	V3W 1P6	49.971379	-97.010268
	Canada	British Columbia	Surrey	12355 Pattullo Place # 103	V3V 8C3	50.6319676	-96.989242
	Canada	British Columbia	Surrey	"12477 88th Avenue Unit 7, Bldg C145"	V3W 1P8	49.876635	-97.409066
	Canada	British Columbia	Surrey	12842 96 Ave Unit 2	V3V 6A8	49.711991	-96.995498
	Canada	British Columbia	Surrey	13245-72 Avenue Suite 103	V3W 2N4	49.18101	-99.664999
	Canada	British Columbia	Surrey	13479 - 108th Ave Unit 100	 V3T5T4	49.69101326	-97.26516351
	Canada	British Columbia	Surrey	13578 88th Ave Unit #116	V3W 3K8	50.25609	-96.061274
	Canada	British Columbia	Surrey	13737 - 96 Avenue #109	V3V 1Z2	50.087547	-96.938982
	Canada	British Columbia	Surrey	13745 72nd Ave Unit 120A	V3W 2P2	49.272276	-100.986191
	Canada	British Columbia	Surrey	14313 Cresent Rd.	V4P 2A2	50.251168	-99.838362
	Canada	British Columbia	Surrey	14370 -64 Avenue	V3W 5R3	49.192535	-98.094659
	Canada	British Columbia	Surrey	14806 108 Ave	V3R 1W1	49.34711671	-97.36470967
	Canada	British Columbia	Surrey	15122 72 Avenue Suite #111	V3S 2G2	49.821366	-96.93668
	Canada	British Columbia	Surrey	15141 Hwy #10	V3S 9A5	50.22621975	-99.44343385
	Canada	British Columbia	Surrey	15551 Fraser Hwy Suite 110	V3S 2V8	49.6059901	-97.0383208
	Canada	British Columbia	Surrey	15905 Fraser Highway Suite 103	V4N 0Y3	49.936564	-96.841323
	Canada	British Columbia	Surrey	15976 108th Ave	V3R 7B9	50.567585	-96.22044
	Canada	British Columbia	Surrey	160-13660 George Junction	V3T 0P6	49.972627	-98.285013
	Canada	British Columbia	Surrey	1623 128th St	V4A 3V2	49.975132	-98.32712
	Canada	British Columbia	Surrey	17700 56th Avenue Unit # A-103	V3S 1C6	49.6572839	-96.4566563
	Canada	British Columbia	Surrey	1797 152nd St Suite 105	V4A 4N3	51.228464	-101.348047
	Canada	British Columbia	Surrey	18775 Fraser Hwy Unit 101	V3S 8E7	49.4596612	-97.4359644
	Canada	British Columbia	Surrey	19186- 96th Ave	V4N 3R3	50.772846	-101.279134
	Canada	British Columbia	Surrey	19188 72 Avenue Unit 106	V4N 1M9	50.156348	-96.899218
	Canada	British Columbia	Surrey	2255 King George Hwy Unit 101	V4A 2J4	50.134509	-96.883559
	Canada	British Columbia	Surrey	2285-160th St Unit E3	V4A 9N6	49.62086431	-100.2666378
	Canada	British Columbia	Surrey	2725 192nd St Unit 302/132	V3Z 3X1	49.7667268	-97.1551348
	Canada	British Columbia	Surrey	2990 152nd St Suite# 106	V4P 3N7	49.44454065	-96.9853514
	Canada	British Columbia	Surrey	3278 King George Highway Unit #3	V4P 1A5	49.545587	-96.689891
	Canada	British Columbia	Surrey	7550 King George Hwy Unit #4	V3W 2T2	49.526627	-96.685672
	Canada	British Columbia	Surrey	8050 King George Blvd Unit 101A	V3W 5B5	50.130185	-97.322649
	Canada	British Columbia	Surrey	"9500-9570,120th St. Unit #9538"	V3V 4C1	50.0864	-97.21955
	Canada	British Columbia	Terrace	4744 Lakelse Ave	V8G 1R6	52.106739	-101.252045
	Canada	British Columbia	Trail	1180 Bay Ave	V1R 4A3	53.823313	-101.2537
	Canada	British Columbia	Trail	8200 Hwy 3B & Divito Drive	V1R 4W4	55.744455	-97.853488
	Canada	British Columbia	Tsawwassen	1612-4949 Canoe Pass Way	V4M 0B2	49.854362	-100.921332
	Canada	British Columbia	Tumbler Ridge	320 Founders St	V0C 2W0	49.188424	-97.93965
	Canada	British Columbia	Valemount	805 Cranberry Lake Rd	 V0E2Z0	49.853792	-97.165065
	Canada	British Columbia	Vancouver	1000 Mainland St	V6B 2T4	49.89879083	-97.07186875
	Canada	British Columbia	Vancouver	101 - 1807 Burrard Street	V6J 3G9	49.88195525	-97.15983127
	Canada	British Columbia	Vancouver	102-1595 W Broadway	V6J 1W6	49.8946897	-97.2006307
	Canada	British Columbia	Vancouver	1046 Davie St	V6E 1M3	49.9439113	-97.19615785
	Canada	British Columbia	Vancouver	1055 Canada Place Way Unit 32	V6C 0C3	49.933818	-97.164139
	Canada	British Columbia	Vancouver	1095 Hornby St	V6Z 2S5	49.8354846	-97.1139
	Canada	British Columbia	Vancouver	110 - 510 W. Hastings St.	V6B 1L8	49.904137	-97.066384
	Canada	British Columbia	Vancouver	110 2323 Boundary Rd	V5M 4V8	49.847033	-97.196313
	Canada	British Columbia	Vancouver	1109 Main Street	V6A 4B6	49.907062	-97.176035
	Canada	British Columbia	Vancouver	1162 Alberni Street	V6E 1A5	49.8837064	-97.1801863
	Canada	British Columbia	Vancouver	1213 Pacific Blvd	V6M 2N9	49.8984463	-97.0751884
	Canada	British Columbia	Vancouver	1255 Granville Street Granville / Davie	V6Z 1M5	49.918047	-97.129253
	Canada	British Columbia	Vancouver	1288 W Broadway	V6H 1G6	49.8469	-97.1887
	Canada	British Columbia	Vancouver	1368 W Georgia St # 4	V6E 4S2	49.8858096	-97.0612875
	Canada	British Columbia	Vancouver	139 West Hastings Street	V6B 1H4	49.8846559	-97.1981751
	Canada	British Columbia	Vancouver	1696 Salt Street	 V5Y0E4	49.8256667	-97.1151771
	Canada	British Columbia	Vancouver	1725 Robson St Suite 3	V6G 1C9	49.89481	-97.057234
	Canada	British Columbia	Vancouver	1773 Kingsway	V5N 2S5	49.8984703	-97.06115986
	Canada	British Columbia	Vancouver	200 Burrard Street Unit Fc26	V6C 1K6	49.8945807	-97.06852676
	Canada	British Columbia	Vancouver	2079 Dundas St	V5L 1J5	49.8249518	-97.2005079
	Canada	British Columbia	Vancouver	2178 Western Parkway	V6T 1V6	49.821209	-97.202777
	Canada	British Columbia	Vancouver	2312 Kingsway	V5R 5G9	49.919336	-97.206188
	Canada	British Columbia	Vancouver	2499 Nanaimo Street	V5N 4E5	49.85778	-97.106553
	Canada	British Columbia	Vancouver	2569 Commercial Drive	V5N 4C1	49.81836	-97.198883
	Canada	British Columbia	Vancouver	260 Robson Street	V6B 6A1	49.8469	-97.1887
	Canada	British Columbia	Vancouver	2640 Arbutus St	V6J 5L8	49.95284	-97.075682
	Canada	British Columbia	Vancouver	2801A West 16th Avenue	V6K 3C5	49.938444	-97.116663
	Canada	British Columbia	Vancouver	2827 Main Street Unit 3	V5T 3G5	49.9016482	-97.2113031
	Canada	British Columbia	Vancouver	2828 E Hastings St Unit 108	V5K 5C5	49.857389	-97.202316
	Canada	British Columbia	Vancouver	2892 Grandview Hwy	V5M 2C9	49.82272835	-97.14956521
	Canada	British Columbia	Vancouver	3090 W Broadway St Unit 3	V6K 2G9	49.878997	-97.222845
	Canada	British Columbia	Vancouver	3297 Cambie Street Unit #2	 V5Z2W3	49.8469	-97.1887
	Canada	British Columbia	Vancouver	34-601 W Cordova St Unit 0034A	V6B 1G1	49.90063168	-97.14068934
	Canada	British Columbia	Vancouver	3490 Kingsway Ave #1	V5R 5L7	49.93859356	-97.09235348
	Canada	British Columbia	Vancouver	350 SE Marine Dr Unit #5	V5X 2S5	49.9134373	-97.11510046
	Canada	British Columbia	Vancouver	3890 Oak St	V6H 2M5	49.8149836	-97.1518839
	Canada	British Columbia	Vancouver	4108 Fraser Street	V5N 4E8	49.949462	-97.152806
	Canada	British Columbia	Vancouver	428 Terminal Avenue	V6A 0C1	49.886014	-97.264112
	Canada	British Columbia	Vancouver	4367 W 10th Ave	V6R 2H6	49.891161	-97.147785
	Canada	British Columbia	Vancouver	4665 Arbutus Street	V6K 4A3	49.81153	-97.13381443
	Canada	British Columbia	Vancouver	474 South West Marine Drive	V6P 6N6	49.8744597	-97.116401
	Canada	British Columbia	Vancouver	"505 Burrard St #104, Tower I"	V7X 1B1	49.883509	-97.298364
	Canada	British Columbia	Vancouver	5218 Joyce St	V5R 6C9	49.958793	-97.0899
	Canada	British Columbia	Vancouver	541 Granville St	V6C 1X8	49.892568	-97.139989
	Canada	British Columbia	Vancouver	555 West 12th Avenue Unit 17	V5Z 3X7	49.79238575	-97.15661255
	Canada	British Columbia	Vancouver	5623 West Boulevard	V6M 3W7	49.84357992	-97.19035475
	Canada	British Columbia	Vancouver	5698 Main Street	V5W 2S7	49.887396	-97.140113
	Canada	British Columbia	Vancouver	610 SE Marine Dr	V5X 1J4	49.890625	-97.143025
	Canada	British Columbia	Vancouver	6138 Student Union Blvd Student Union Building	V6T 1Z1	49.8840328	-97.2982959
	Canada	British Columbia	Vancouver	6191 Fraser St	V5W 2Z9	49.8544883	-97.07622455
	Canada	British Columbia	Vancouver	6402 Victoria Drive	V5P 3X7	49.894443	-97.11372
	Canada	British Columbia	Vancouver	6471 Oak St	V6M 2W7	49.883665	-97.31286
	Canada	British Columbia	Vancouver	683 Abbott Street	V6B 0J4	49.857958	-97.26278
	Canada	British Columbia	Vancouver	701 W Georgia Street Cru Fc02a	V7Y 1G5	49.88070848	-97.32382986
	Canada	British Columbia	Vancouver	7176 Kerr Street	V5S 4W2	49.878085	-97.144771
	Canada	British Columbia	Vancouver	722 Smithe St	V6Z 1A6	49.88218974	-97.12427853
	Canada	British Columbia	Vancouver	7289 Knight Street	V5P 2W8	49.910617	-97.081833
	Canada	British Columbia	Vancouver	8-615 E Broadway	V5T 1X7	49.8325034	-97.0459387
	Canada	British Columbia	Vancouver	820 Thurlow St	V6E 1W2	49.889747	-97.153175
	Canada	British Columbia	Vancouver	8347 Granville St	V6P 4Z8	49.8648656	-97.1466991
	Canada	British Columbia	Vancouver	838 Davie Street	V6Z 1M5	49.900731	-96.985702
	Canada	British Columbia	Vancouver	846 Powell Street	V6A 1H8	49.862504	-97.311871
	Canada	British Columbia	Vancouver	Science Building Cafeteria	V5Y 2Z6	49.904344	-97.155222
	Canada	British Columbia	Vanderhoof	167 1st Street West	V0J 3A0	49.863112	-97.132228
	Canada	British Columbia	Vernon	3101 Hwy 6 Suite 107	V1T 9H6	49.827059	-97.085182
	Canada	British Columbia	Vernon	4400 27th St	V1T 4Y4	49.8710908	-97.1534877
	Canada	British Columbia	Vernon	5301 25th Ave Unit #114	V1T 9R1	49.9015	-97.2102
	Canada	British Columbia	Victoria	#105-2244 Sooke Rd	V9B 1X1	49.896983	-97.170465
	Canada	British Columbia	Victoria	1090 Fort Street Unit 100	V8V 3K4	49.844851	-97.180533
	Canada	British Columbia	Victoria	1110 McKenzie Ave	V8P 5P5	49.8902752	-97.2008417
	Canada	British Columbia	Victoria	1111 Blanshard St Suite #101	V8W 2H7	49.9546964	-97.14593666
	Canada	British Columbia	Victoria	120 - 31 Helmcken Rd	V8Z 5G5	49.882228	-97.07653
	Canada	British Columbia	Victoria	1324 Douglas St	V8W 2E8	49.899922	-97.135406
	Canada	British Columbia	Victoria	1420 Quadra Street Suite 104	V8W 2L1	47.6408592	-65.68286376
	Canada	British Columbia	Victoria	1568 Fort St	V8S 5J2	47.627308	-65.682463
	Canada	British Columbia	Victoria	1633 Hillside Ave	V8T 2C4	47.711169	-65.707088
	Canada	British Columbia	Victoria	1638 McKenzie Avenue Unit 106	V8N 0A3	46.471517	-64.722733
	Canada	British Columbia	Victoria	1644 Hillside Avenue Store #Fcu11	 V8T2C5	48.003994	-66.678742
	Canada	British Columbia	Victoria	1790 Island Hwy Unit 103	V9B 1H8	46.217245	-64.300126
	Canada	British Columbia	Victoria	1952 Bay Street Unit 4	V8R 1J8	47.793347	-64.943229
	Canada	British Columbia	Victoria	1964 Fort St Suite #104 A	V8R 6R3	48.0603195	-66.36950686
	Canada	British Columbia	Victoria	239 Menzies St	V8V 2G6	46.1036767	-64.7063361
	Canada	British Columbia	Victoria	2400 Millstream Road	V2X 9W6	46.084898	-64.733786
	Canada	British Columbia	Victoria	2401C Millstream Rd Unit 149	V9B 3R5	46.0956696	-64.7611603
	Canada	British Columbia	Victoria	2935 Tillicum Rd	V9A 2A6	46.0984992	-64.7565663
	Canada	British Columbia	Victoria	2945 Jacklin Road Suite # 100	V9B 5E3	47.363453	-68.330399
	Canada	British Columbia	Victoria	3147 Douglas St Fc4	V8Z 6E3	47.3726369	-68.3168228
	Canada	British Columbia	Victoria	3400 Douglas St 204	V8Z 3L5	47.375995	-68.31069
	Canada	British Columbia	Victoria	3749 Shelbourne St Suite #209	V8P 5N4	47.395259	-68.341378
	Canada	British Columbia	Victoria	4091 Shelbourne Street	V8N 5Y1	46.449916	-67.612767
	Canada	British Columbia	Victoria	4144 Wilkinson Rd Unit 7	V8Z 5A7	45.988852	-66.651752
	Canada	British Columbia	Victoria	4480 W Saanich Rd Suite# 108	V8Z 3E9	45.941353	-66.666609
	Canada	British Columbia	Victoria	"456 Gorge Rd E Ground Floor, Suite B"	V8T 2W4	45.93482215	-66.66542909
	Canada	British Columbia	Victoria	744 Goldstream Ave	V9B 2X3	45.946291	-66.684685
	Canada	British Columbia	Victoria	774 Bay St	V8T 5E4	45.976977	-66.648611
	Canada	British Columbia	Victoria	890A Esquimalt Road	V9A 3M4	45.962648	-66.644974
	Canada	British Columbia	West Kelowna	525 Highway 97 South Unit #910 (D3)	V1Z 4C9	45.944645	-66.645267
	Canada	British Columbia	West Vancouver	1499A Marine Drive	V7T 1B8	45.306346	-66.1951921
	Canada	British Columbia	West Vancouver	2002 Park Royal South Unit Fc04 Food Court	V7T 2W4	47.048697	-67.73982
	Canada	British Columbia	West Vancouver	5371 Headland Drive	V7W 3C7	47.0616939	-67.76015723
	Canada	British Columbia	West Vancouver	6610 Royal Ave	V7W 2G5	45.51994	-65.83264
	Canada	British Columbia	Westbank	2430 Main St Unit #2	V4T 1Y9	46.99924865	-65.56782
	Canada	British Columbia	Westbank	3550 Carrington Road Unit 203	V4T 2Z1	47.019881	-65.444827
	Canada	British Columbia	Whistler	2011 Innsbruck Drive Unit #104	V0N 1B2	47.030582	-65.49054
	Canada	British Columbia	Whistler	4000  Way Unit 202	V0N 1B0	47.003787	-65.542806
	Canada	British Columbia	Williams Lake	1185 Prosperity Way	V6E 2Y3	46.111033	-64.779907
	Canada	British Columbia	Williams Lake	1196 S Broadway	V2G 1A2	46.094501	-64.782718
	Canada	British Columbia	Winfield	111 9685 Hwy 97	V4V 1P5	46.122084	-64.84868195
	Canada	Manitoba	Altona	46 6th Street SE	R0G 0B0	46.0759673	-64.8027944
	Canada	Manitoba	Arborg	341 Main Street	R0C 0A0	46.1333533	-64.8856629
	Canada	Manitoba	Ashern	8 Hwy 6 North	R0C 0E0	46.088636	-64.77603
	Canada	Manitoba	Austin	Highway 1	R0H 0C0	46.102384	-64.815747
	Canada	Manitoba	Beausejour	818 Park Ave	R0E 0C0	46.13004	-64.770872
	Canada	Manitoba	Boissevain	346 Mill Road	 R0K0E0	45.992939	-67.245558
	Canada	Manitoba	Brandon	1060 18th St	R7A 5C1	47.243281	-65.084831
	Canada	Manitoba	Brandon	1570-18th St. Unit #81	R7A 5C5	45.833204	-66.489397
	Canada	Manitoba	Brandon	1890 18th St N	R7C 1A5	49.885162	-99.963467
	Canada	Manitoba	Brandon	2425 A Victoria Ave	 R7B4H7	49.8426868	-99.971031
	Canada	Manitoba	Brandon	750 Victoria Avenue Unit A	R7A 1A5	49.842041	-99.947498
	Canada	Manitoba	Brandon	821 B-18th St North	R7A 7S1	49.8648872	-99.9599865
	Canada	Manitoba	Carberry	200 1st Avenue	R0K 0H0	49.8708483	-99.3562661
	Canada	Manitoba	Carman	82 4th Ave SE	R0G 0J0	49.502112	-97.997607
	Canada	Manitoba	Dauphin	204 Main St South	R7N 1K6	51.147781	-100.051971
	Canada	Manitoba	East St Paul	3000 Birds Hill Rd Unit E	R2E 1J5	49.971379	-97.010268
	Canada	Manitoba	Gimli	41 Centre St Unit G	R0C 1B0	50.6319676	-96.989242
	Canada	Manitoba	Headingley	5461 Portage Ave	R4H 1H8	49.876635	-97.409066
	Canada	Manitoba	Ile Des Chenes	597 Meadowlark Boulevard Unit 1 Ile des Chenes	R0A 0T0	49.711991	-96.995498
	Canada	Manitoba	Killarney	322 Broadway Ave	R0K 1G0	49.18101	-99.664999
	Canada	Manitoba	La Salle	49 Rue Principal Unit 5	R0G 0A2	49.69101326	-97.26516351
	Canada	Manitoba	Lac Du Bonnet	98 3rd St	R0E 1A0	50.25609	-96.061274
	Canada	Manitoba	Lockport	23036 44th Hwy	R1B 1A1	50.087547	-96.938982
	Canada	Manitoba	Melita	624 Government Rd  Po	R0M 1L0	49.272276	-100.986191
	Canada	Manitoba	Minnedosa	64 Main Street S.	R0J 1E0	50.251168	-99.838362
	Canada	Manitoba	Morden	75 Thornhill Street	R6M 1P2	49.192535	-98.094659
	Canada	Manitoba	Morris	106 Main St	R0G 1K0	49.34711671	-97.36470967
	Canada	Manitoba	Navin	55100A Pr 207	R5T 0J7	49.821366	-96.93668
	Canada	Manitoba	Neepawa	11 Main Street	 R0J1H0	50.22621975	-99.44343385
	Canada	Manitoba	Niverville	237 Main Street	R0A 1E0	49.6059901	-97.0383208
	Canada	Manitoba	Oakbank	449 Main St	R0E 1J0	49.936564	-96.841323
	Canada	Manitoba	Pine Falls	15 Pine St	R0E 1M0	50.567585	-96.22044
	Canada	Manitoba	Portage La Prairie	315 Saskatchewan Ave E	R1N 0L6	49.972627	-98.285013
	Canada	Manitoba	Portage La Prairie	50 24th St NW Unit A	R1N 3B5	49.975132	-98.32712
	Canada	Manitoba	Richer	43164 1 East Hwy	R0E 1S0	49.6572839	-96.4566563
	Canada	Manitoba	Roblin	119 Hwy 5 East	R0L 1P0	51.228464	-101.348047
	Canada	Manitoba	Rosenort	22 Hwy 205 E.	R0G 1W0	49.4596612	-97.4359644
	Canada	Manitoba	Russell	Highway 16	R0J 1W0	50.772846	-101.279134
	Canada	Manitoba	Selkirk	1014 Manitoba Ave Unit 1	R1A 3T7	50.156348	-96.899218
	Canada	Manitoba	Selkirk	184 Main Street	R1A 1R3	50.134509	-96.883559
	Canada	Manitoba	Souris	5-1st Avenue W	R0K 2C0	49.62086431	-100.2666378
	Canada	Manitoba	St Norbert	3499 Pembina Hwy	R3V 1A4	49.7667268	-97.1551348
	Canada	Manitoba	St. Pierre-Jolys	362 Rue Sabourin St.	 R0A1V0	49.44454065	-96.9853514
	Canada	Manitoba	Steinbach	115 Park Rd W	R5G 1V5	49.545587	-96.689891
	Canada	Manitoba	Steinbach	275 Main St	R5G 1Y9	49.526627	-96.685672
	Canada	Manitoba	Stonewall	493 4th Street East	R0C 2Z0	50.130185	-97.322649
	Canada	Manitoba	Stony Mountain	73014 Road 10 E.	R0C 3A0	50.0864	-97.21955
	Canada	Manitoba	Swan River	1437 Main St	R0L 1Z0	52.106739	-101.252045
	Canada	Manitoba	The Pas	254 Fischer Ave Stn Main	R9A 1K3	53.823313	-101.2537
	Canada	Manitoba	Thompson	73 A  Dr. N	R8N 1Z7	55.744455	-97.853488
	Canada	Manitoba	Virden	Highway 1	R0M 2C0	49.854362	-100.921332
	Canada	Manitoba	Winkler	654 Main St	R6W 1A3	49.188424	-97.93965
	Canada	Manitoba	Winnepeg	1180 Taylor Ave	R3M 3Z4	49.853792	-97.165065
	Canada	Manitoba	Winnipeg	100 Regent Ave. West	R3P 2R8	49.89879083	-97.07186875
	Canada	Manitoba	Winnipeg	100 Sherbrook Street	R3P 2R8	49.88195525	-97.15983127
	Canada	Manitoba	Winnipeg	1017 St James Street	 R3H0K6	49.8946897	-97.2006307
	Canada	Manitoba	Winnipeg	1030 Keewatin St Unit 1	R2R 2E2	49.9439113	-97.19615785
	Canada	Manitoba	Winnipeg	1055 McPhillips St	R2X 2K6	49.933818	-97.164139
	Canada	Manitoba	Winnipeg	1086 St. Mary's Road Unit G	R2M 4K4	49.8354846	-97.1139
	Canada	Manitoba	Winnipeg	11 Reenders Dr Unit 65	R2C 5K5	49.904137	-97.066384
	Canada	Manitoba	Winnipeg	1100 Concordia Ave Unit 111	R3P 2R8	49.847033	-97.196313
	Canada	Manitoba	Winnipeg	1111 Notre Dame Ave	R3E 0N4	49.907062	-97.176035
	Canada	Manitoba	Winnipeg	1132 Portage Ave	R3G 0S7	49.8837064	-97.1801863
	Canada	Manitoba	Winnipeg	1150 Nairn Avenue	R2L 0Y5	49.8984463	-97.0751884
	Canada	Manitoba	Winnipeg	1155 Main St Unit D	R2W 3S4	49.918047	-97.129253
	Canada	Manitoba	Winnipeg	1225 St Marys Rd Store 80A	R3P 2R8	49.8469	-97.1887
	Canada	Manitoba	Winnipeg	1303 Dugald Road Suite A	R2J 0H3	49.8858096	-97.0612875
	Canada	Manitoba	Winnipeg	1485 Portage Avenue Unit Fc12	R3G 0W4	49.8846559	-97.1981751
	Canada	Manitoba	Winnipeg	1504 St. Mary's Road Unit 3	R2M 3V7	49.8256667	-97.1151771
	Canada	Manitoba	Winnipeg	1522A Regent Ave	R2C 3B4	49.89481	-97.057234
	Canada	Manitoba	Winnipeg	1555 Regent Ave West Unit F6	R2C 4J2	49.8984703	-97.06115986
	Canada	Manitoba	Winnipeg	1590 Regent Ave. W.	R3P 2R8	49.8945807	-97.06852676
	Canada	Manitoba	Winnipeg	1645 Kenaston Blvd	R4H 1J7	49.8249518	-97.2005079
	Canada	Manitoba	Winnipeg	1670 Kenaston Blvd Unit A	R3P 2M6	49.821209	-97.202777
	Canada	Manitoba	Winnipeg	1693 King Edward St	R2R 2V6	49.919336	-97.206188
	Canada	Manitoba	Winnipeg	172 St Annes Road Unit 2	R2M 2Z8	49.85778	-97.106553
	Canada	Manitoba	Winnipeg	1765 W Kenaston Blvd Unit W	R3Y 1V8	49.81836	-97.198883
	Canada	Manitoba	Winnipeg	1783 Plessis Road Unit 15	R3P 2R8	49.8469	-97.1887
	Canada	Manitoba	Winnipeg	1795 Henderson Hwy 13A	R2G 1P3	49.95284	-97.075682
	Canada	Manitoba	Winnipeg	1820 Main St	R2V 3H2	49.938444	-97.116663
	Canada	Manitoba	Winnipeg	1821 Wellington Avenue Unit 101B	R3H 0G4	49.9016482	-97.2113031
	Canada	Manitoba	Winnipeg	1833 Grant Ave	R3N 2A4	49.857389	-97.202316
	Canada	Manitoba	Winnipeg	1910 Pembina Hwy Unit 3	R3T 4S5	49.82272835	-97.14956521
	Canada	Manitoba	Winnipeg	1925 Portage Ave	R3J 0J5	49.878997	-97.222845
	Canada	Manitoba	Winnipeg	1999 Bishop Grandin Blvd.	R3P 2R8	49.8469	-97.1887
	Canada	Manitoba	Winnipeg	2 - 123 Princess Ave.	R3B 0R1	49.90063168	-97.14068934
	Canada	Manitoba	Winnipeg	20-1128 Henderson Hwy	R2G 1L3	49.93859356	-97.09235348
	Canada	Manitoba	Winnipeg	201 Henderson Hwy	R2L 1L7	49.9134373	-97.11510046
	Canada	Manitoba	Winnipeg	2075 B Pembina Highway	R3P 2R8	49.8149836	-97.1518839
	Canada	Manitoba	Winnipeg	2140 McPhillips St Unit 1	R2V 3C8	49.949462	-97.152806
	Canada	Manitoba	Winnipeg	2389 Ness Avenue	R3J 1A5	49.886014	-97.264112
	Canada	Manitoba	Winnipeg	247-249 Kennedy St	R3C 1T2	49.891161	-97.147785
	Canada	Manitoba	Winnipeg	248L University Center Camp Cafe	R3T 2N2	49.81153	-97.13381443
	Canada	Manitoba	Winnipeg	249 St. Mary's Road Unit 2	R2H 1J5	49.8744597	-97.116401
	Canada	Manitoba	Winnipeg	2539 Portage Ave	R3J 0P1	49.883509	-97.298364
	Canada	Manitoba	Winnipeg	2579 Main Street Unit 2	R2V 4W3	49.958793	-97.0899
	Canada	Manitoba	Winnipeg	266 Graham Ave	 R2C0A1	49.892568	-97.139989
	Canada	Manitoba	Winnipeg	2750 Pembina Hwy Unit C	R3T 2H8	49.79238575	-97.15661255
	Canada	Manitoba	Winnipeg	3-640 Sterling Lyon Parkway Unit 1	R3P 0Y2	49.84357992	-97.19035475
	Canada	Manitoba	Winnipeg	310 Broadway Unit 1	R3C 1L6	49.887396	-97.140113
	Canada	Manitoba	Winnipeg	333 St Mary Ave Unit 102 D	R3C 1M8	49.890625	-97.143025
	Canada	Manitoba	Winnipeg	3393 Portage Ave Unit 180	R3K 0X2	49.8840328	-97.2982959
	Canada	Manitoba	Winnipeg	35 Lakewood Blvd Unit 24	R2J 2M8	49.8544883	-97.07622455
	Canada	Manitoba	Winnipeg	353 Provencher Blvd. Unit 8	R2H 0G8	49.894443	-97.11372
	Canada	Manitoba	Winnipeg	3653 Portage Ave Unit 104A	R3K 2G6	49.883665	-97.31286
	Canada	Manitoba	Winnipeg	3900 Grant Avenue Unit 5A And 5B	R3R 3C2	49.857958	-97.26278
	Canada	Manitoba	Winnipeg	393 Portage Ave Unit 159 A	R3R 2B4	49.88070848	-97.32382986
	Canada	Manitoba	Winnipeg	445 Stradbrook Avenue	R3L 0J7	49.878085	-97.144771
	Canada	Manitoba	Winnipeg	49-51 Goulet St	R2H 0R5	49.88218974	-97.12427853
	Canada	Manitoba	Winnipeg	491 London St	R2K 2Z4	49.910617	-97.081833
	Canada	Manitoba	Winnipeg	50 Sage Creek Blvd Unit 806	R3X 0J6	49.8325034	-97.0459387
	Canada	Manitoba	Winnipeg	508 Portage Ave	R3C 0G4	49.889747	-97.153175
	Canada	Manitoba	Winnipeg	584 Pembina Hwy Unit 21	R3M 3X7	49.8648656	-97.1466991
	Canada	Manitoba	Winnipeg	630 Kildare Ave East Unit 4	R2C 0P8	49.900731	-96.985702
	Canada	Manitoba	Winnipeg	6500 Roblin Blvd	R3R 3P9	49.862504	-97.311871
	Canada	Manitoba	Winnipeg	653 William Avenue	R3A 0K1	49.904344	-97.155222
	Canada	Manitoba	Winnipeg	660 Osborne Street Unit 1	R3L 2B6	49.863112	-97.132228
	Canada	Manitoba	Winnipeg	680 St. Annes Road Unit 1B	R2N 3S9	49.827059	-97.085182
	Canada	Manitoba	Winnipeg	747 Corydon Ave	R3M 0W5	49.8710908	-97.1534877
	Canada	Manitoba	Winnipeg	836 McLeod Avenue Unit 10	R3H 0G3	49.9015	-97.2102
	Canada	Manitoba	Winnipeg	840B Sargent Ave	R3E 0C4	49.896983	-97.170465
	Canada	Manitoba	Winnipeg	877 Waverly St Unit 10	R3T 5V3	49.844851	-97.180533
	Canada	Manitoba	Winnipeg	900 St. James Street Unit C	R3G 3J7	49.8902752	-97.2008417
	Canada	Manitoba	Winnipeg	925 Leila Ave Unit 013	R2V 3J7	49.9546964	-97.14593666
	Canada	Manitoba	Winnipeg	995 Marion St	R2J 0K9	49.882228	-97.07653
	Canada	Manitoba	Winnipeg	Can West Globel Park	R3B 3N3	49.899922	-97.135406
	Canada	New Brunswick	Bathurst	310 Vanier Blvd	E2A 3M9	47.6408592	-65.68286376
	Canada	New Brunswick	Bathurst	880 St. Anne Street	E2A 6X2	47.627308	-65.682463
	Canada	New Brunswick	Beresford	730 Rue Principale	E8K 2B7	47.711169	-65.707088
	Canada	New Brunswick	Bouctouche	65 Irving Boulevard	E4S 3J7	46.471517	-64.722733
	Canada	New Brunswick	Campbellton	78 Roseberry Street	E3N 2G7	48.003994	-66.678742
	Canada	New Brunswick	Cap Pele	2420 Acadie St.	E4N 1C8	46.217245	-64.300126
	Canada	New Brunswick	Caraquet	31 Blvd St Pierre Ouest	E1W 1B7	47.793347	-64.943229
	Canada	New Brunswick	Dalhousie	173 Renfrew Street	E8C 2J1	48.0603195	-66.36950686
	Canada	New Brunswick	Dieppe	1040 Champlain St	E1A 8L8	46.1036767	-64.7063361
	Canada	New Brunswick	Dieppe	309 Amirault Unit 2	E1A 1G1	46.084898	-64.733786
	Canada	New Brunswick	Dieppe	477 Paul St Unit B004f	E1A 4X5	46.0956696	-64.7611603
	Canada	New Brunswick	Dieppe	525 Regis Street Unit #3	E1A 1Y2	46.0984992	-64.7565663
	Canada	New Brunswick	Edmundston	121 Rue de L'Eglise	E3V 1J9	47.363453	-68.330399
	Canada	New Brunswick	Edmundston	180 Hebert Blvd	E3V 2S7	47.3726369	-68.3168228
	Canada	New Brunswick	Edmundston	275 Hebert Boul.	E3V 4E4	47.375995	-68.31069
	Canada	New Brunswick	Edmundston	805 Victoria St.	E3V 3T3	47.395259	-68.341378
	Canada	New Brunswick	Florenceville-Bristol Nb	8818 Main St. Unit 1	E7L 3G2	46.449916	-67.612767
	Canada	New Brunswick	Fredericton	1050 Douglas Ave Unit B	E3A 9N2	45.988852	-66.651752
	Canada	New Brunswick	Fredericton	1055 Prospect St Unit # 1	E3B 3B9	45.941353	-66.666609
	Canada	New Brunswick	Fredericton	1381 Regent Street Unit P002	E3C 1A2	45.93482215	-66.66542909
	Canada	New Brunswick	Fredericton	245 Bishop Drive	E3C 1B1	45.946291	-66.684685
	Canada	New Brunswick	Fredericton	265 Main St	E3A 1C9	45.976977	-66.648611
	Canada	New Brunswick	Fredericton	349 King St	E3B 1E4	45.962648	-66.644974
	Canada	New Brunswick	Fredericton	67 Dineen Drive Sir James Dunn Hall	E3B 5G3	45.944645	-66.645267
	Canada	New Brunswick	Grand Bay	309 River Valley Dr U #2	E5K 1A8	45.306346	-66.1951921
	Canada	New Brunswick	Grand Falls	218 Broadway Blvd Suite 104	E3Z 2J9	47.048697	-67.73982
	Canada	New Brunswick	Grand Falls	423 Madawaska Road	E3Y 1A4	47.0616939	-67.76015723
	Canada	New Brunswick	Hampton	486 Main Street	E5N 6C1	45.51994	-65.83264
	Canada	New Brunswick	Miramichi	160 Jane Street	E1V 2T3	46.99924865	-65.56782
	Canada	New Brunswick	Miramichi	186 King St	E1N 2P2	47.019881	-65.444827
	Canada	New Brunswick	Miramichi	2481 King George Hwy Suite 1	E1V 6W4	47.030582	-65.49054
	Canada	New Brunswick	Miramichi	500 Water Street Rooms 1015A & 1016	E1V 3G5	47.003787	-65.542806
	Canada	New Brunswick	Moncton	100 Morton Avenue	E1A 4P3	46.111033	-64.779907
	Canada	New Brunswick	Moncton	184 Mountain Rd	E1C 2L3	46.094501	-64.782718
	Canada	New Brunswick	Moncton	1845 Mountain Rd.	 E1G1A8	46.122084	-64.84868195
	Canada	New Brunswick	Moncton	1849 Main St	E1E 1H7	46.0759673	-64.8027944
	Canada	New Brunswick	Moncton	2731 Mountain Road	E1G 2W5	46.1333533	-64.8856629
	Canada	New Brunswick	Moncton	706 Main St	E1C 1E4	46.088636	-64.77603
	Canada	New Brunswick	Moncton	980 Mountain Road	E1C 2S2	46.102384	-64.815747
	Canada	New Brunswick	Moncton New Brunswick	10 Granite Drive	 E1H2G9	46.13004	-64.770872
	Canada	New Brunswick	Nackawic	467 Highway 105	E6G 2N1	45.992939	-67.245558
	Canada	New Brunswick	"Neguac, Nb"	644 Rue Principale	E9G 1M5	47.243281	-65.084831
	Canada	New Brunswick	Oromocto	Lot 09-1 Gateway Drive	E2V 4S3	45.833204	-66.489397
	Canada	New Brunswick	Perth Andover	18F Tribe Road Unit 3	E7H 3R6	46.7465967	-67.7132882
	Canada	New Brunswick	Petitcodiac	16 Smith Street	E4Z 4W1	45.93268835	-65.1677261
	Canada	New Brunswick	Quispamsis	10 Millennium Drive	E2E 4B1	45.417366	-65.944417
	Canada	New Brunswick	Richibucto	25 Cartier Boulevard	E4W 3W7	46.6723173	-64.87207551
	Canada	New Brunswick	Riverview	414 Coverdale Rd	E1B 3J9	46.065247	-64.79940997
	Canada	New Brunswick	Riverview	630 Pinewood Rd	E1B 5M7	46.05278595	-64.79096321
	Canada	New Brunswick	Rothesay	157 Hampton Road	E2E 2N8	45.402353	-65.975296
	Canada	New Brunswick	Sackville	211 Main St Irving Mainway	E4L 4B5	45.907914	-64.372846
	Canada	New Brunswick	Saint John	124 Bayside Drive	E2J 1A2	45.2833332	-66.039929
	Canada	New Brunswick	Saint John	147 Lansdowne Ave	 E2K2Z9	45.27905	-66.076929
	Canada	New Brunswick	Saint John	167 McAllister Dr. Unit #3	E2J 2S6	45.311358	-66.016683
	Canada	New Brunswick	Saint John	28 King Street	E2L 1G3	45.272908	-66.06113
	Canada	New Brunswick	Saint John	519 Westmorland Road Unit No. L010a	E2J 3W9	45.307382	-66.01656
	Canada	New Brunswick	Saint John	56 City Rd	E2L 3M7	45.27954	-66.059666
	Canada	New Brunswick	Saint John	800 Fairville Blvd. Unit W1	E2M 5T4	45.25238655	-66.10106251
	Canada	New Brunswick	Saint Quentin	360 Rue Canada	E8A 1H8	47.52265	-67.39187
	Canada	New Brunswick	Salisbury	2934 Hwy #12 & Tch	E4J 2G1	46.0265418	-65.0418279
	Canada	New Brunswick	Shediac	333 Main St Unit 3	E4P 2B2	46.219521	-64.542923
	Canada	New Brunswick	Shippagan	225 Blvd Jd Gautier	E8S 1N2	47.74412965	-64.71026146
	Canada	New Brunswick	St Leonard	382 Rue St Jean	E7E 2B6	47.168587	-67.917657
	Canada	New Brunswick	St Stephen	142 King St	E3L 2C4	45.198937	-67.274951
	Canada	New Brunswick	St. Andrews	131 Water St	 E5B1A7	45.074651	-67.055474
	Canada	New Brunswick	Sunny Corner	1765 Highway 425	E9E 1J1	46.9457939	-65.8145267
	Canada	New Brunswick	Sussex	581 Main St	E4E 7H4	45.722584	-65.521719
	Canada	New Brunswick	Tracadie	3400 1 Main St	E1X 1C8	47.518097	-64.898377
	Canada	New Brunswick	Upper Letang	17 Rte 172	E5C 2C7	45.12862	-66.7867
	Canada	New Brunswick	Waterville	1-21 Alwright Court	E7P 0A5	46.28431	-67.580262
	Canada	New Brunswick	Woodstock	396 Connell St	E7M 5G9	46.1710201	-67.6016132
	Canada	Newfoundland And Labrador	Bay Roberts	276 Conception Bay Highway	A0A 1G0	47.574455	-53.285798
	Canada	Newfoundland And Labrador	Bonavista	142 154 Cabot Highway	A0C 1B0	48.63659607	-53.11771232
	Canada	Newfoundland And Labrador	Carbonear	127 Columbus Drive	A1Y 1A6	47.72626995	-53.24620321
	Canada	Newfoundland And Labrador	Clarenville	76 D Manitoba Dr	A5A 1K6	48.162727	-53.982463
	Canada	Newfoundland And Labrador	Conception Bay South	130  Hwy	A1W 3A6	47.51896	-52.957205
	Canada	Newfoundland And Labrador	Corner Brook	13 Union St	A2H 5M7	48.94212856	-57.94862042
	Canada	Newfoundland And Labrador	Corner Brook	24 Murphy Square	A2H 1R4	48.958717	-57.924161
	Canada	Newfoundland And Labrador	Deer Lake	2 Commerce Street	A8A 1E6	49.17391	-57.42797
	Canada	Newfoundland And Labrador	Gander	116 Trans Canada Hwy	A1V 1W6	48.951634	-54.619124
	Canada	Newfoundland And Labrador	Gander	318 Airport Blvd	A1V 1X5	48.953502	-54.601489
	Canada	Newfoundland And Labrador	Goose Bay	11 Loring Dr	A0P 1C0	53.29755546	-60.39932975
	Canada	Newfoundland And Labrador	Goulds	390 Main Rd	A1S 1G2	47.4614637	-52.7717423
	Canada	Newfoundland And Labrador	Grand Falls	13 A Cromer Dr	A2A 2R6	48.9447426	-55.6548554
	Canada	Newfoundland And Labrador	Holyrood	386 Conception Bay Highway	A0A 2R0	47.38775555	-53.12289186
	Canada	Newfoundland And Labrador	Kelligrews	918 Conception Bay South Hwy	A1X 7T5	47.494269	-53.025499
	Canada	Newfoundland And Labrador	Labrador City	151 Avalon Drive	A2V 1K4	52.942959	-66.909014
	Canada	Newfoundland And Labrador	Lewisporte	512 Main St	A0G 3A0	49.22533597	-55.05812258
	Canada	Newfoundland And Labrador	Marystown	6 Columbia Drive	A0E 2M0	47.16598961	-55.16060783
	Canada	Newfoundland And Labrador	Mount Pearl	18 Commonwealth Ave	A1N 1W5	47.519952	-52.80784
	Canada	Newfoundland And Labrador	Mount Pearl	22 Gibson Drive	A1N 5K8	47.502133	-52.808768
	Canada	Newfoundland And Labrador	Paradise	1495 Topsail Rd	A1L 1P9	47.531198	-52.8606266
	Canada	Newfoundland And Labrador	Paradise	986 Kenmount Rd.	A1L 1N3	47.527996	-52.838221
	Canada	Newfoundland And Labrador	Pasadena	91 Main St	A0L 1K0	49.012827	-57.622381
	Canada	Newfoundland And Labrador	Port Aux Basques	1 High St	A0M 1C0	47.589756	-59.160694
	Canada	Newfoundland And Labrador	Springdale	70 Little Bay Rd	A0J 1T0	49.4993211	-56.0763835
	Canada	Newfoundland And Labrador	St Johns	179 Elizabeth Ave	A1B 1S8	47.575597	-52.722778
	Canada	Newfoundland And Labrador	St Johns	1D Kiwanis Street	A1B 0A2	47.55065	-52.780078
	Canada	Newfoundland And Labrador	St Johns	338 Water St	A1C 1C3	47.5609564	-52.71085204
	Canada	Newfoundland And Labrador	St Johns	430 Top Sail Rd Unit F2	A1E 4N1	47.56494	-52.70931
	Canada	Newfoundland And Labrador	St Johns	46 Torbay Rd	A1A 2G4	47.5841744	-52.7064107
	Canada	Newfoundland And Labrador	St Johns	95 Stavanger Dr Bldg C3	A1C 5K4	47.5478923	-52.7299604
	Canada	Newfoundland And Labrador	St. Anthony	46-48 West Street	A0K 4S0	51.3710891	-55.5983851
	Canada	Newfoundland And Labrador	St. John's	10 Tailwind Drive	A1A 0R5	47.61132	-52.75003
	Canada	Newfoundland And Labrador	St. John's	16 Hamlyn Rd	A1E 5X7	47.533975	-52.752151
	Canada	Newfoundland And Labrador	St. John's	20 Ropewalk Lane	A1E 1V1	47.5552275	-52.73456878
	Canada	Newfoundland And Labrador	St. John's	48 Kenmount Rd	A1B 1W3	47.56198885	-52.75532317
	Canada	Newfoundland And Labrador	Stephenville	147 Main St	A2N 1J5	48.5500301	-58.5763649
	Canada	Newfoundland And Labrador	Whitbourne	679-713  Road	A0B 3K0	47.4162246	-53.5269386
	Canada	Northwest Territories	Yellowknife	100 Borden Dr Unit #21	X1A 2N7	62.45011175	-114.4062432
	Canada	Northwest Territories	Yellowknife	5103 50th St	X1A 2P1	62.4527608	-114.3684756
	Canada	Nova Scotia	Amherst	138 South Albion St	B4H 2X3	45.812817	-64.202781
	Canada	Nova Scotia	Antigonish	46 James St	B2G 1R7	45.615493	-62.003439
	Canada	Nova Scotia	Auld Cove	"13138, 104 Trans Canada Hwy"	B0H 1P0	45.66970583	-61.49911647
	Canada	Nova Scotia	Barrington Passage	22 Hwy 330	B0W 1G0	43.520429	-65.616515
	Canada	Nova Scotia	Bedford	1595  Hwy Unit No. M3	B4A 3Y4	44.7342125	-63.65419074
	Canada	Nova Scotia	Bedford	61 Gary Martin Drive	B4B 0G7	44.7252824	-63.7050514
	Canada	Nova Scotia	Bedford	961  Highway Unit 0125	B4A 1A9	44.71610065	-63.67629402
	Canada	Nova Scotia	Berwick	189 Commercial Street	B0P 1E0	45.0426916	-64.73544852
	Canada	Nova Scotia	Bridgewater	215 Dominion St	B4V 2K7	44.3706218	-64.5258495
	Canada	Nova Scotia	Bridgewater	28 Davison Dr Unit 6	B4V 3T2	44.380455	-64.51727
	Canada	Nova Scotia	Chester	3839 North St	B0J 1J0	44.546411	-64.236374
	Canada	Nova Scotia	Coldbrook	7152 Highway #1	B4R 1C1	45.067119	-64.568417
	Canada	Nova Scotia	Conway	256 Highway303	 B0V1A0	44.6094647	-65.7703234
	Canada	Nova Scotia	Dartmouth	100 Ilsley Ave Unit Tu	B3B 1L3	44.69947065	-63.58718365
	Canada	Nova Scotia	Dartmouth	100 Main St Unit 7	B2X 1R5	44.6804409	-63.5413811
	Canada	Nova Scotia	Dartmouth	1095 Cole Harbour Rd	B4G 1A6	44.82016539	-63.69439005
	Canada	Nova Scotia	Dartmouth	245 Waverley Road	B2X 2C5	44.69768695	-63.54834191
	Canada	Nova Scotia	Dartmouth	259 Commodore Dr Concession Room 102	B3B 0M1	44.702393	-63.578669
	Canada	Nova Scotia	Dartmouth	26 Bancroft Lane Unit 1	B3B 1B3	44.697927	-63.605205
	Canada	Nova Scotia	Dartmouth	262 Baker Drive Unit 100	B2W 6L4	44.6555755	-63.52981009
	Canada	Nova Scotia	Dartmouth	380 Pleasant St Unit #7	B2Y 3S5	44.6490784	-63.54628014
	Canada	Nova Scotia	Dartmouth	53 Gale Terrace	B3B 0C5	44.699051	-63.5638986
	Canada	Nova Scotia	Dartmouth	575 Main St Unit 5	B2W 6A4	44.69372985	-63.50107702
	Canada	Nova Scotia	Dartmouth	650 Portland St	B2W 6C4	44.66989775	-63.52234824
	Canada	Nova Scotia	Dartmouth	Premises 341	B3A 4N3	44.67134	-63.57719
	Canada	Nova Scotia	Eastern Passage	"71 Cow Bay Rd. Bldg B, Unit 202B"	B3G 1A2	44.61203585	-63.4900279
	Canada	Nova Scotia	Elmsdale	56 Mason Lane	 B2S1K1	44.9780808	-63.5061035
	Canada	Nova Scotia	Eskasoni	4716 Shore Road.	B1W 1A1	45.934226	-60.644942
	Canada	Nova Scotia	Fall River	3301 Hwy #2	 B2T1J2	44.8181552	-63.6126171
	Canada	Nova Scotia	Glace Bay	99 Reserve St.	B1A 4W5	46.1921899	-59.9710874
	Canada	Nova Scotia	Goffs	440 Bell Blvd	B2T 1K3	44.8822438	-63.5209238
	Canada	Nova Scotia	Goffs	747 Bell Blvd Unit 1044	B2T 1K2	44.8865602	-63.514915
	Canada	Nova Scotia	Greenwood	963 Central Ave	B0P 1N0	44.9683814	-64.9276027
	Canada	Nova Scotia	Halifax	120 Kearney Lake Road	B3M 3P1	44.684004	-63.674035
	Canada	Nova Scotia	Halifax	1659 Argyle Street	B3J 2B5	44.6463234	-63.5742586
	Canada	Nova Scotia	Halifax	19 Alma Crest At Titus	B3N 2C4	44.65939103	-63.63206414
	Canada	Nova Scotia	Halifax	26 Thomas Raddall Drive 193/194	B3S 0E2	44.6595	-63.6653
	Canada	Nova Scotia	Halifax	266 St. Margaret's Bay Rd Unit 2	B3N 1J6	44.639845	-63.624963
	Canada	Nova Scotia	Halifax	282 Lacewood Dr	B3M 3N8	44.6621157	-63.657605
	Canada	Nova Scotia	Halifax	3045 Robie St	B3K 4P6	44.65921695	-63.60095901
	Canada	Nova Scotia	Halifax	336 Herring Cove Rd	B3R 1V7	44.6130235	-63.6165942
	Canada	Nova Scotia	Halifax	3770 Kempt Road	B3K 4X8	44.6626439	-63.6209577
	Canada	Nova Scotia	Halifax	5201 Duke Street	B3J 1N9	44.6496663	-63.5756472
	Canada	Nova Scotia	Halifax	5560 Fenwick St	B3H 1P8	44.6379094	-63.5734492
	Canada	Nova Scotia	Halifax	5683 Spring Garden Road	B3J 1G9	44.64254	-63.579425
	Canada	Nova Scotia	Halifax	5991 Spring Garden Rd. 104	B3H 1Y6	44.64115	-63.586924
	Canada	Nova Scotia	Halifax	6225 University Avenue	B3H 4H8	44.6374304	-63.5910367
	Canada	Nova Scotia	Halifax	7001 Mumford Rd Fc07	B3L 4N9	44.64901225	-63.61844725
	Canada	Nova Scotia	Halifax	7071 Bayers Rd Unit 218	B3K 2C2	44.65354907	-63.61262481
	Canada	Nova Scotia	Halifax	Iwk Health Centre	B3J 3G9	44.6378638	-63.58373148
	Canada	Nova Scotia	Halifax Regional Municipality	209 Chain Lake Dr	B3S 1C9	44.6518481	-63.67780846
	Canada	Nova Scotia	Liverpool	25 Milton Rd	B0T 1K0	44.04559522	-64.72360994
	Canada	Nova Scotia	Lower Sackville	232 Cobequid Rd	B4C 2N5	44.7606406	-63.6592841
	Canada	Nova Scotia	Lower Sackville	794 Sackville Dr Unit 105	B4E 1R8	44.7739773	-63.69472107
	Canada	Nova Scotia	Lunenburg	116 Montague Street	B0J 2C0	44.376284	-64.309988
	Canada	Nova Scotia	Meteghan River	8958 Highway 1	B0W 2L0	44.21430605	-66.14350483
	Canada	Nova Scotia	Middleton	33 Commercial St	B0S 1P0	44.9431873	-65.06875857
	Canada	Nova Scotia	New Glasgow	677 E River Rd	B2H 3S4	45.575852	-62.642453
	Canada	Nova Scotia	New Minas	9141 Commercial St	B4N 3E6	45.0672336	-64.4509818
	Canada	Nova Scotia	New Waterford	3441 Plummer Ave	B1H 1Z4	46.249454	-60.088539
	Canada	Nova Scotia	North Sydney	326 Commercial St	B2A 1C2	46.210495	-60.2475449
	Canada	Nova Scotia	Oxford	4602 Upper Main Street	B0M 1P0	45.74785998	-63.8214712
	Canada	Nova Scotia	Pictou	273 West River Road	B0K 1H0	45.67981375	-62.7263439
	Canada	Nova Scotia	Port Hawkesbury	297 Reeves St	B9A 2B6	45.618467	-61.359018
	Canada	Nova Scotia	Porter's Lake	Unit Cl02	B3E 1J8	44.74379335	-63.28311875
	Canada	Nova Scotia	Shelburne	41 Falls Lane	B0T 1W0	43.7728602	-65.3297757
	Canada	Nova Scotia	Springhill	16 Main Street	 B0M1X0	45.648636	-64.06037
	Canada	Nova Scotia	St. Peters	10041 Grenville St	B0E 3B0	45.6571253	-60.8711149
	Canada	Nova Scotia	Stellarton	101 Lawrence Blvd.	B0K 1S0	45.5738656	-62.67321574
	Canada	Nova Scotia	Stewiacke	48 Main Street	B0N 2J0	45.138676	-63.3587
	Canada	Nova Scotia	Sydney	1102 Kings Road	B1S 1C7	46.1115651	-60.2202036
	Canada	Nova Scotia	Sydney	403 Charlotte Street	B1P 1E3	46.13640167	-60.19402573
	Canada	Nova Scotia	Sydney	45 Weatherbee Road Suite 104	B1P 1P3	46.1135518	-60.1756337
	Canada	Nova Scotia	Sydney	456 Grand Lake Rd	B1P 5S8	46.145052	-60.157412
	Canada	Nova Scotia	Sydney	800 Grand Lake Road Fc #2	B1P 6S9	46.1468	-60.137212
	Canada	Nova Scotia	Tatamagouche	450 Main St	B0K 1V0	45.7053074	-63.28269929
	Canada	Nova Scotia	Timberlea	1831 St. Margaret's Bay Rd	B3T 1B8	44.646233	-63.712551
	Canada	Nova Scotia	Truro	16 Elm Street	B2N 4B5	45.368566	-63.286927
	Canada	Nova Scotia	Truro	22 Pictou Rd	B2N 2R8	45.372495	-63.268411
	Canada	Nova Scotia	Truro	35 Treaty Trail	B6L 1W3	45.332787	-63.304412
	Canada	Nova Scotia	Upper Tantallon	3622 Hammonds Plains Rd Unit 1	B3Z 4R3	44.70410795	-63.85700351
	Canada	Nova Scotia	Windsor	333 Wentworth Rd RR #1	B0N 2T0	44.992534	-64.111515
	Canada	Nova Scotia	Wolfville	469-471 Main St	B4P 1E3	45.091139	-64.363327
	Canada	Nova Scotia	Yarmouth	83 Starrs Road	B5A 2T6	43.84329196	-66.10504348
	Canada	Ontario	Aberfoyle	292 Brock Rd S	N1L 0A6	43.46356658	-80.13834181
	Canada	Ontario	Acton	12 Main St N	L7J 1W1	43.62968	-80.042569
	Canada	Ontario	Ajax	1995 Salem Road North Unit 6	L1T 0J9	43.895708	-79.029789
	Canada	Ontario	Ajax	255 Salem Road South Unit D1	L1S 6M7	43.85601842	-79.012611
	Canada	Ontario	Ajax	300 Harwood Ave Unit D01002a	L1S 2J1	43.84587493	-79.01943996
	Canada	Ontario	Ajax	300-338 Rossland Road East	L1Z 0M1	43.882306	-79.018457
	Canada	Ontario	Ajax	42 Old Kingston Rd	L1T 2Z7	43.8544237	-79.0570692
	Canada	Ontario	Ajax	5 - 1949 Ravenscroft Road	L1T 0K4	43.89183647	-79.05552437
	Canada	Ontario	Ajax	6 Harwood Ave SW	L1S 7L8	43.860153	-79.026618
	Canada	Ontario	Alexandria	421 Main St S	K0C 1A0	45.30043192	-74.62769374
	Canada	Ontario	Alfred	550 St Phillippe St	K0B 1A0	45.5566928	-74.8882965
	Canada	Ontario	Alliston	22 Dunham Drive Unit 102	L9R 0G1	44.162233	-79.82331
	Canada	Ontario	Alliston	36 Young St Unit # R02b	L9R 1P8	44.14922443	-79.87882975
	Canada	Ontario	Almonte	415 Ottowa Street Unit 104	K0A 1A0	45.216699	-76.189962
	Canada	Ontario	Amherstburg	473 Sandwich St. S.	N9V 3G5	42.094438	-83.107666
	Canada	Ontario	Amherstview	"4507 Bath Rd Unit 1, Block F"	K7N 1A6	44.21844731	-76.64485108
	Canada	Ontario	Ancaster	1015 Golf Links Rd Unit 402	L9K 1K1	43.22873105	-79.94189991
	Canada	Ontario	Ancaster	1051 Hwy 53 W Unit 103	L9G 3K9	43.225693	-79.976692
	Canada	Ontario	Ancaster	54 Wilson St W Unit #2	L9G 3T8	43.2151524	-79.9902503
	Canada	Ontario	Angus	7 Commerce Drive Unit 2	L0M 1B0	44.3294899	-79.8902068
	Canada	Ontario	Arnprior	100 Madawaska Blvd. Unit #3	K7S 2C8	45.43438075	-76.34567571
	Canada	Ontario	Arnprior	395 Daniel Street S	K7S 3G9	45.4236506	-76.3693032
	Canada	Ontario	Arthur	7999 Wellington Rd 109	N0G 1A0	43.827796	-80.533468
	Canada	Ontario	Aurora	14810 Yonge St Unit C1	L4G 1N3	43.988786	-79.465395
	Canada	Ontario	Aurora	15570 Yonge Street Unit #6	 L4G1P2	44.00748966	-79.46967501
	Canada	Ontario	Aurora	233 Earl Stewart Drive Unit 10	L4G 7Y3	44.0190538	-79.449037
	Canada	Ontario	Aurora	83 First Commerce Dr. Unit #2	L4G 0G2	44.01449542	-79.4152782
	Canada	Ontario	Aurora	"Building B, Unit B06,  Centre 15400 - 15480 Bayview Avenue"	L4G 7J1	44.0077034	-79.44459273
	Canada	Ontario	Azilda	93 Notre Dame Avenue West Unit 8	 P0M1B0	46.55316858	-81.11886963
	Canada	Ontario	Baden	18 Snyder's Road West	N3A 2M1	43.404455	-80.66983
	Canada	Ontario	Bancroft	110 Hasting St N	K0L 1C0	45.060565	-77.855684
	Canada	Ontario	Barrie	102 Bayfield St Unit 3	L4M 4V1	44.39173362	-79.69248708
	Canada	Ontario	Barrie	19 Mapleview Drive West	L4N 9H5	44.3339721	-79.6859247
	Canada	Ontario	Barrie	190 Minet's Point Rd Unit 9	L4N 4C3	44.3702057	-79.6688037
	Canada	Ontario	Barrie	201 Georgian Drive Unit Fk3	L4M 6M2	44.41444315	-79.66083601
	Canada	Ontario	Barrie	221 Cundles Road East Unit 13	L4M 3B3	44.4125496	-79.6862071
	Canada	Ontario	Barrie	237 Mapleview Dr. E. Unit 10	L4N 0W5	44.340111	-79.663796
	Canada	Ontario	Barrie	307 Blake Street	L4M 1K7	44.39664878	-79.65806322
	Canada	Ontario	Barrie	331 Bayfield Street	L4M 3C2	44.4024705	-79.70081995
	Canada	Ontario	Barrie	353 Duckworth Street	L4M 5C2	44.4071948	-79.6741334
	Canada	Ontario	Barrie	367 Cundles Road East Unit H2	L4M 0G9	44.41634068	-79.67662785
	Canada	Ontario	Barrie	410 Essa Rd Unit A-3	L4N 9J7	44.3477311	-79.70300038
	Canada	Ontario	Barrie	420 Leacock Drive Unit M	L4N 5G5	44.3916912	-79.7227075
	Canada	Ontario	Barrie	509 Bayfield Street	L4M 4Z8	44.41315235	-79.70810845
	Canada	Ontario	Barrie	636 Yonge Street Unit D-3	L4N 4E6	44.3548957	-79.6454819
	Canada	Ontario	Barrie	652 Dunlop Street West	L4N 9X1	44.365449	-79.732938
	Canada	Ontario	Barrie	7 Anne Street South Unit 1B	L4N 2C4	44.3826137	-79.70420361
	Canada	Ontario	Barrie	"827 Big Bay Point Rd,Bldg C2"	L9J 0A2	44.3643323	-79.6147118
	Canada	Ontario	Barrie	89 Park Place Blvd Unit 1	L4N 6P4	44.339891	-79.6817843
	Canada	Ontario	Barrys Bay	19531- Opengo Line	 K0J1B0	45.47543743	-77.67323285
	Canada	Ontario	Bayfield	2 Main St. South Unit #4	N0M 1G0	43.5617838	-81.6962508
